Year,UNITID,INSTNM,CITY,STABBR,ZIP,CONTROL,HLOFFER,INSTSIZE,LONGITUD,LATITUDE
2020,100654,Alabama A & M University,Normal,AL,35762,1,9,3,-86.568502,34.783368
2020,100663,University of Alabama at Birmingham,Birmingham,AL,35294,1,9,5,-86.799345,33.505697
2020,100690,Amridge University,Montgomery,AL,36117,2,9,1,-86.17401,32.362609
2020,100706,University of Alabama in Huntsville,Huntsville,AL,35899,1,9,3,-86.640449,34.724557
2020,100724,Alabama State University,Montgomery,AL,36104,1,9,2,-86.295677,32.364317
2020,100733,University of Alabama System Office,Tuscaloosa,AL,35401,1,9,-2,-87.529594,33.207015
2020,100751,The University of Alabama,Tuscaloosa,AL,35487,1,9,5,-87.545978,33.211875
2020,100760,Central Alabama Community College,Alexander City,AL,35010,1,3,2,-85.945266,32.92478
2020,100812,Athens State University,Athens,AL,35611,1,7,2,-86.964698,34.806793
2020,100830,Auburn University at Montgomery,Montgomery,AL,36117,1,9,3,-86.177544,32.36736
2020,100858,Auburn University,Auburn,AL,36849,1,9,5,-85.488258,32.599378
2020,100937,Birmingham-Southern College,Birmingham,AL,35254,2,5,2,-86.850552,33.513774
2020,101028,Chattahoochee Valley Community College,Phenix City,AL,36869,1,3,2,-85.031485,32.42391
2020,101116,South University-Montgomery,Montgomery,AL,36116,3,7,1,-86.216488,32.342684
2020,101143,Enterprise State Community College,Enterprise,AL,36330,1,3,2,-85.836956,31.297496
2020,101161,Coastal Alabama Community College,Bay Minette,AL,36507,1,3,3,-87.778193,30.851343
2020,101189,Faulkner University,Montgomery,AL,36109,2,9,2,-86.21641,32.384181
2020,101240,Gadsden State Community College,Gadsden,AL,35903,1,3,2,-85.991438,33.994001
2020,101277,New Beginning College of Cosmetology,Albertville,AL,35951,3,2,1,-86.196931,34.27871
2020,101286,George C Wallace Community College-Dothan,Dothan,AL,36303,1,3,2,-85.465836,31.315274
2020,101295,George C Wallace State Community College-Hanceville,Hanceville,AL,35077,1,3,2,-86.781935,34.072439
2020,101301,George C Wallace State Community College-Selma,Selma,AL,36703,1,3,2,-87.013294,32.445917
2020,101365,Herzing University-Birmingham,Birmingham,AL,35209,2,8,1,-86.832465,33.468466
2020,101435,Huntingdon College,Montgomery,AL,36106,2,5,1,-86.284366,32.351034
2020,101453,Heritage Christian University,Florence,AL,35630,2,7,1,-87.663051,34.856153
2020,101462,J. F. Drake State Community and Technical College,Huntsville,AL,35811,1,3,1,-86.572885,34.771858
2020,101471,J F Ingram State Technical College,Deatsville,AL,36022,1,3,1,-86.392369,32.582312
2020,101480,Jacksonville State University,Jacksonville,AL,36265,1,9,3,-85.765321,33.822938
2020,101505,Jefferson State Community College,Birmingham,AL,35215,1,3,3,-86.707233,33.652535
2020,101514,John C Calhoun State Community College,Tanner,AL,35671,1,3,3,-86.949674,34.645844
2020,101541,Judson College,Marion,AL,36756,2,5,1,-87.315206,32.629253
2020,101569,Lawson State Community College,Birmingham,AL,35221,1,3,2,-86.888844,33.450814
2020,101587,University of West Alabama,Livingston,AL,35470,1,9,3,-88.186329,32.588132
2020,101602,Lurleen B Wallace Community College,Andalusia,AL,36420,1,3,2,-86.452262,31.322947
2020,101648,Marion Military Institute,Marion,AL,36756,1,3,1,-87.322041,32.623734
2020,101675,Miles College,Fairfield,AL,35064,2,5,2,-86.908751,33.482442
2020,101693,University of Mobile,Mobile,AL,36613,2,9,2,-88.128934,30.793247
2020,101709,University of Montevallo,Montevallo,AL,35115,1,8,2,-86.865099,33.10625
2020,101736,Northwest-Shoals Community College,Muscle Shoals,AL,35661,1,3,2,-87.678089,34.739788
2020,101879,University of North Alabama,Florence,AL,35632,1,9,3,-87.681361,34.806738
2020,101897,Northeast Alabama Community College,Rainsville,AL,35986,1,3,2,-85.911664,34.545471
2020,101912,Oakwood University,Huntsville,AL,35896,2,7,2,-86.652705,34.756344
2020,101994,Reid State Technical College,Evergreen,AL,36401,1,3,1,-86.964797,31.460265
2020,102030,Bishop State Community College,Mobile,AL,36603,1,3,2,-88.056982,30.693972
2020,102049,Samford University,Birmingham,AL,35229,2,9,3,-86.791799,33.464128
2020,102058,Selma University,Selma,AL,36701,2,7,-1,-87.032392,32.420387
2020,102067,Shelton State Community College,Tuscaloosa,AL,35405,1,3,2,-87.56148,33.120531
2020,102076,Snead State Community College,Boaz,AL,35957,1,3,2,-86.169897,34.201495
2020,102094,University of South Alabama,Mobile,AL,36688,1,9,4,-88.178711,30.696033
2020,102234,Spring Hill College,Mobile,AL,36608,2,8,2,-88.138199,30.694751
2020,102270,Stillman College,Tuscaloosa,AL,35401,2,5,1,-87.585278,33.200006
2020,102298,Talladega College,Talladega,AL,35160,2,7,2,-86.112704,33.433472
2020,102313,H Councill Trenholm State Community College,Montgomery,AL,36108,1,3,2,-86.343057,32.350109
2020,102368,Troy University,Troy,AL,36082,1,9,4,-85.957094,31.800672
2020,102377,Tuskegee University,Tuskegee,AL,36088,2,9,2,-85.708492,32.4309
2020,102395,United States Sports Academy,Daphne,AL,36526,2,9,1,-87.91163,30.639329
2020,102429,Bevill State Community College,Jasper,AL,35501,1,3,2,-87.266406,33.836929
2020,102553,University of Alaska Anchorage,Anchorage,AK,99508,1,9,4,-149.82619,61.190163
2020,102580,Alaska Bible College,Palmer,AK,99645,2,5,1,-149.111972,61.598553
2020,102614,University of Alaska Fairbanks,Fairbanks,AK,99775,1,9,3,-147.823146,64.85756
2020,102632,University of Alaska Southeast,Juneau,AK,99801,1,7,2,-134.638255,58.384846
2020,102669,Alaska Pacific University,Anchorage,AK,99508,2,9,1,-149.804168,61.190968
2020,102711,Alaska Vocational Technical Center,Seward,AK,99664,1,2,1,-149.444487,60.110626
2020,102845,Charter College,Vancouver,WA,98683,3,5,2,-122.494766,45.617798
2020,103501,Alaska Career College,Anchorage,AK,99507,3,3,1,-149.856954,61.181443
2020,103529,University of Alaska System of Higher Education,Fairbanks,AK,99775,1,9,-2,-147.848969,64.857516
2020,103741,Empire Beauty School-Tucson,Tucson,AZ,85716,3,2,1,-110.927187,32.235657
2020,103893,Carrington College-Phoenix North,Phoenix,AZ,85051,3,3,1,-112.104601,33.565758
2020,103909,Carrington College-Mesa,Mesa,AZ,85210,3,3,1,-111.853218,33.39248
2020,103927,Carrington College-Tucson,Tucson,AZ,85745,3,3,1,-110.983056,32.224391
2020,103945,CollegeAmerica-Flagstaff,Flagstaff,AZ,86001,2,3,1,-111.657673,35.194495
2020,103954,Arizona Academy of Beauty-East,Tucson,AZ,85712,3,2,1,-110.872305,32.237253
2020,103963,Platt College-Arizona Automotive Institute Arizona,Glendale,AZ,85301,3,2,1,-112.157344,33.537249
2020,104090,Brookline College-Phoenix,Phoenix,AZ,85021,3,7,2,-112.112473,33.566102
2020,104151,Arizona State University Campus Immersion,Tempe,AZ,85287,1,9,5,-111.934383,33.417721
2020,104160,Arizona Western College,Yuma,AZ,85365,1,3,3,-114.495968,32.689306
2020,104179,University of Arizona,Tucson,AZ,85721,1,9,5,-110.950815,32.232672
2020,104188,Southwest University of Visual Arts-Tucson,Tucson,AZ,85701,2,7,1,-110.970838,32.221702
2020,104346,Central Arizona College,Coolidge,AZ,85128,1,3,2,-111.652501,32.957092
2020,104391,Charles of Italy Beauty College,Lake Havasu City,AZ,86403,3,2,1,-114.332686,34.477485
2020,104425,Cochise County Community College District,Sierra Vista,AZ,85635,1,3,2,-110.246946,31.564597
2020,104434,Empire Beauty School-Flagstaff,Flagstaff,AZ,86004,3,2,1,-111.625936,35.197151
2020,104443,Empire Beauty School-Chandler,Chandler,AZ,85224,3,2,1,-111.860423,33.347586
2020,104568,Avalon School of Cosmetology-Mesa,Mesa,AZ,85210,3,2,1,-111.858305,33.376583
2020,104577,Eastern Arizona College,Thatcher,AZ,85552,1,3,2,-109.76234,32.843664
2020,104586,Embry-Riddle Aeronautical University-Prescott,Prescott,AZ,86301,2,7,2,-112.449741,34.616766
2020,104665,The School of Architecture,Paradise Valley,AZ,85253,2,7,1,-111.941953,33.566649
2020,104708,Glendale Community College,Glendale,AZ,85302,1,3,4,-112.190735,33.570226
2020,104717,Grand Canyon University,Phoenix,AZ,85017,3,9,5,-112.129929,33.513231
2020,105136,Maricopa Community College System Office,Tempe,AZ,85281,1,4,-2,-111.975786,33.412915
2020,105145,GateWay Community College,Phoenix,AZ,85034,1,4,2,-111.997077,33.449686
2020,105154,Mesa Community College,Mesa,AZ,85202,1,3,4,-111.871255,33.390323
2020,105206,Mohave Community College,Kingman,AZ,86409,1,3,2,-114.029838,35.270996
2020,105215,Universal Technical Institute of Arizona Inc-Motorcycle Mechanics Institute Division,Phoenix,AZ,85027,3,2,1,-112.121336,33.684428
2020,105297,Dine College,Tsaile,AZ,86556,1,5,2,-109.21684,36.293328
2020,105330,Northern Arizona University,Flagstaff,AZ,86011,1,9,5,-111.653724,35.188449
2020,105349,Northland Pioneer College,Holbrook,AZ,86025,1,3,2,-110.142199,34.93031
2020,105367,Ottawa University-Phoenix,Phoenix,AZ,85021,2,9,2,-112.113001,33.572173
2020,105428,Phoenix College,Phoenix,AZ,85013,1,4,3,-112.088293,33.481361
2020,105525,Pima Community College,Tucson,AZ,85709,1,3,4,-110.886659,32.222125
2020,105534,Pima Medical Institute-Tucson,Tucson,AZ,85712,3,5,2,-110.878783,32.248067
2020,105543,Pima Medical Institute-Albuquerque,Albuquerque,NM,87110,3,3,1,-106.59488,35.104855
2020,105589,Prescott College,Prescott,AZ,86301,2,9,1,-112.477185,34.5452
2020,105659,Refrigeration School Inc,Phoenix,AZ,85034,3,3,1,-111.989357,33.448692
2020,105668,Rio Salado College,Tempe,AZ,85281,1,3,4,-111.97417,33.413309
2020,105677,Roberto-Venn School of Luthiery,Phoenix,AZ,85007,3,1,1,-112.086161,33.45489
2020,105747,Scottsdale Community College,Scottsdale,AZ,85256,1,3,3,-111.885186,33.51135
2020,105792,South Mountain Community College,Phoenix,AZ,85042,1,3,2,-112.032635,33.382406
2020,105899,Arizona Christian University,Glendale,AZ,85306,2,5,1,-112.181776,33.622952
2020,106041,Universal Technical Institute of Arizona Inc,Avondale,AZ,85323,3,3,2,-112.288123,33.453005
2020,106111,Empire Beauty School-NW Phoenix,Phoenix,AZ,85051,3,2,1,-112.118168,33.538093
2020,106148,Yavapai College,Prescott,AZ,86301,1,3,3,-112.453395,34.547495
2020,106245,University of Arkansas at Little Rock,Little Rock,AR,72204,1,9,3,-92.339778,34.723254
2020,106263,University of Arkansas for Medical Sciences,Little Rock,AR,72205,1,9,2,-92.320046,34.749048
2020,106306,Arkansas Baptist College,Little Rock,AR,72202,2,5,1,-92.290555,34.734751
2020,106315,Arkansas Beauty School-Little Rock,Little Rock,AR,72209,3,2,1,-92.343366,34.672171
2020,106324,Arkansas Beauty College,Russellville,AR,72801,3,2,1,-93.135369,35.27902
2020,106342,Lyon College,Batesville,AR,72501,2,5,1,-91.625354,35.777619
2020,106351,Arkansas College of Barbering and Hair Design,North Little Rock,AR,72114,3,2,1,-92.266429,34.753843
2020,106360,Arthur's Beauty College,Fort Smith,AR,72901,3,2,1,-94.410967,35.379955
2020,106397,University of Arkansas,Fayetteville,AR,72701,1,9,5,-94.176981,36.070009
2020,106412,University of Arkansas at Pine Bluff,Pine Bluff,AR,71601,1,9,2,-92.018683,34.244031
2020,106449,Arkansas State University-Beebe,Beebe,AR,72012,1,3,2,-91.895351,35.074176
2020,106458,Arkansas State University,Jonesboro,AR,72401,1,9,4,-90.679988,35.842388
2020,106467,Arkansas Tech University,Russellville,AR,72801,1,9,4,-93.13562,35.293237
2020,106485,University of Arkansas at Monticello,Monticello,AR,71656,1,7,2,-91.811153,33.590909
2020,106494,Arthur's Beauty College,Jacksonville,AR,72076,3,2,1,-92.102579,34.891572
2020,106546,Baptist Health College Little Rock,Little Rock,AR,72210,2,4,1,-92.40692,34.713115
2020,106625,Black River Technical College,Pocahontas,AR,72455,1,3,2,-90.951033,36.239793
2020,106704,University of Central Arkansas,Conway,AR,72035,1,9,4,-92.457672,35.077945
2020,106713,Central Baptist College,Conway,AR,72034,2,5,1,-92.445021,35.083838
2020,106795,Cossatot Community College of the University of Arkansas,De Queen,AR,71832,1,3,2,-94.3673,34.043389
2020,106810,Crowley's Ridge College,Paragould,AR,72450,2,5,1,-90.584395,36.064845
2020,106883,East Arkansas Community College,Forrest City,AR,72335,1,3,1,-90.767726,35.041655
2020,106892,Eastern College of Health Vocations-Little Rock,Little Rock,AR,72205,3,1,1,-92.341891,34.75128
2020,106908,Paul Mitchell the School-Little Rock,North Little Rock,AR,72117,3,2,1,-92.222202,34.789913
2020,106980,National Park College,Hot Springs,AR,71913,1,3,2,-93.119248,34.512687
2020,106999,University of Arkansas Community College-Batesville,Batesville,AR,72503,1,3,2,-91.615852,35.792923
2020,107044,Harding University,Searcy,AR,72149,2,9,2,-91.726143,35.247386
2020,107071,Henderson State University,Arkadelphia,AR,71999,1,8,2,-93.059703,34.128155
2020,107080,Hendrix College,Conway,AR,72032,2,7,2,-92.443256,35.101565
2020,107099,Hot Springs Beauty College,Hot Springs,AR,71901,3,2,1,-93.037277,34.496057
2020,107123,Jefferson Regional Medical Center School of Nursing,Pine Bluff,AR,71603,2,3,1,-92.018045,34.187831
2020,107141,John Brown University,Siloam Springs,AR,72761,2,8,2,-94.560283,36.189812
2020,107220,Career Academy of Hair Design,Springdale,AR,72764,3,2,1,-94.12947,36.167605
2020,107293,Academy of Salon and Spa,Fort Smith,AR,72901,3,2,1,-94.41616,35.38097
2020,107318,Arkansas State University Mid-South,West Memphis,AR,72301,1,3,2,-90.22285,35.145736
2020,107327,Arkansas Northeastern College,Blytheville,AR,72316,1,3,2,-89.921005,35.898597
2020,107442,New Tyler Barber College Inc,North Little Rock,AR,72114,3,2,1,-92.254171,34.760085
2020,107460,North Arkansas College,Harrison,AR,72601,1,3,2,-93.08844,36.219909
2020,107488,Northwest Technical Institute,Springdale,AR,72764,1,2,1,-94.115346,36.178032
2020,107512,Ouachita Baptist University,Arkadelphia,AR,71998,2,7,2,-93.052471,34.126093
2020,107521,Arkansas State University Three Rivers,Malvern,AR,72104,1,3,2,-92.821416,34.378745
2020,107549,Ozarka College,Melbourne,AR,72556,1,3,2,-91.896355,36.053031
2020,107558,University of the Ozarks,Clarksville,AR,72830,2,5,1,-93.467221,35.476278
2020,107585,University of Arkansas Community College-Morrilton,Morrilton,AR,72110,1,3,2,-92.728507,35.172136
2020,107600,Philander Smith College,Little Rock,AR,72202,2,5,1,-92.283015,34.737131
2020,107619,Phillips Community College of the University of Arkansas,Helena,AR,72342,1,3,2,-90.616884,34.546155
2020,107637,Southeast Arkansas College,Pine Bluff,AR,71603,1,3,2,-92.025936,34.210309
2020,107655,Professional Cosmetology Education Center,El Dorado,AR,71730,3,2,1,-92.664101,33.216032
2020,107664,University of Arkansas-Pulaski Technical College,North Little Rock,AR,72118,1,4,2,-92.299184,34.782783
2020,107725,University of Arkansas Hope-Texarkana,Hope,AR,71801,1,3,2,-93.596762,33.641665
2020,107743,University of Arkansas Community College Rich Mountain,Mena,AR,71953,1,3,1,-94.219799,34.591449
2020,107789,Paul Mitchell the School-Arkansas,Fayetteville,AR,72703,3,2,1,-94.153892,36.126373
2020,107831,Searcy Beauty College,Searcy,AR,72143,3,2,1,-91.735135,35.239148
2020,107840,Shorter College,N Little Rock,AR,72114,2,3,1,-92.261331,34.75933
2020,107877,Williams Baptist University,Walnut Ridge,AR,72476,2,7,1,-90.940277,36.125676
2020,107974,South Arkansas Community College,El Dorado,AR,71731,1,3,2,-92.666087,33.209446
2020,107983,Southern Arkansas University Main Campus,Magnolia,AR,71753,1,7,2,-93.235922,33.291618
2020,107992,Southern Arkansas University Tech,Camden,AR,71701,1,3,1,-92.721629,33.628367
2020,108056,University of Arkansas System Office,Little Rock,AR,72207,1,9,-2,-92.343582,34.775996
2020,108065,Velvatex College of Beauty Culture,Little Rock,AR,72202,3,2,1,-92.289597,34.735685
2020,108092,University of Arkansas-Fort Smith,Fort Smith,AR,72913,1,7,3,-94.373729,35.384184
2020,108232,Academy of Art University,San Francisco,CA,94105,3,7,3,-122.400578,37.787943
2020,108269,Academy of Chinese Culture and Health Sciences,Oakland,CA,94612,2,9,1,-122.269839,37.805972
2020,108649,Avalon School of Cosmetology-Alameda,Alameda,CA,94501,3,2,-2,-122.243566,37.764203
2020,108667,College of Alameda,Alameda,CA,94501,1,3,3,-122.279303,37.781017
2020,108807,Allan Hancock College,Santa Maria,CA,93454,1,4,4,-120.421144,34.943716
2020,108852,American Academy of Dramatic Arts-Los Angeles,Los Angeles,CA,90028,2,3,1,-118.343701,34.095378
2020,108861,Berkeley School of Theology,Berkeley,CA,94704,2,9,1,-122.256149,37.865252
2020,108870,American Film Institute Conservatory,Los Angeles,CA,90027,2,7,1,-118.310018,34.10767
2020,108977,American Beauty College,West Covina,CA,91790,3,2,1,-117.936959,34.069367
2020,109040,American Career College-Los Angeles,Los Angeles,CA,90004,3,3,2,-118.292481,34.079323
2020,109086,American Conservatory Theater,San Francisco,CA,94102,2,7,1,-122.410265,37.786923
2020,109208,American River College,Sacramento,CA,95841,1,4,5,-121.349672,38.65085
2020,109350,Antelope Valley College,Lancaster,CA,93536,1,5,4,-118.186166,34.676207
2020,109651,Art Center College of Design,Pasadena,CA,91103,2,7,2,-118.185102,34.169031
2020,109721,Associated Technical College-Los Angeles,Los Angeles,CA,90017,3,2,1,-118.272364,34.056102
2020,109730,Associated Technical College-San Diego,San Diego,CA,92108,3,1,1,-117.135196,32.773178
2020,109785,Azusa Pacific University,Azusa,CA,91702,2,9,3,-117.888375,34.130047
2020,109819,Bakersfield College,Bakersfield,CA,93305,1,5,5,-118.973753,35.40911
2020,109907,Barstow Community College,Barstow,CA,92311,1,3,2,-117.023412,34.870285
2020,109934,Bellus Academy-Chula Vista,Chula Vista,CA,91911,3,4,1,-117.083738,32.614773
2020,110060,Bethesda University,Anaheim,CA,92801,2,9,1,-117.941323,33.842295
2020,110097,Biola University,La Mirada,CA,90639,2,9,3,-118.014374,33.906203
2020,110194,Brownson Technical School,Anaheim,CA,92805,3,2,1,-117.905774,33.819032
2020,110219,Bryan University,Tempe,AZ,85281,3,7,2,-111.944197,33.437779
2020,110246,Butte College,Oroville,CA,95965,1,4,3,-121.644831,39.649782
2020,110316,California Institute of Integral Studies,San Francisco,CA,94103,2,9,2,-122.416102,37.774924
2020,110334,Cabrillo College,Aptos,CA,95003,1,3,3,-121.924797,36.989448
2020,110361,California Baptist University,Riverside,CA,92504,2,9,4,-117.425619,33.929321
2020,110370,California College of the Arts,San Francisco,CA,94107,2,7,2,-122.399451,37.767485
2020,110398,University of California-Hastings College of Law,San Francisco,CA,94102,1,9,2,-122.4157,37.781137
2020,110404,California Institute of Technology,Pasadena,CA,91125,2,9,2,-118.125878,34.137349
2020,110413,California Lutheran University,Thousand Oaks,CA,91360,2,9,2,-118.878924,34.224566
2020,110422,California Polytechnic State University-San Luis Obispo,San Luis Obispo,CA,93407,1,7,5,-120.657311,35.299513
2020,110468,Alliant International University-San Diego,San Diego,CA,92131,3,9,2,-117.094398,32.897056
2020,110486,California State University-Bakersfield,Bakersfield,CA,93311,1,9,4,-119.104711,35.350005
2020,110495,California State University-Stanislaus,Turlock,CA,95382,1,9,4,-120.852511,37.52577
2020,110501,California State University-Chancellors Office,Long Beach,CA,90802,1,9,-2,-118.201255,33.764338
2020,110510,California State University-San Bernardino,San Bernardino,CA,92407,1,9,4,-117.323801,34.182622
2020,110529,California State Polytechnic University-Pomona,Pomona,CA,91768,1,9,5,-117.821476,34.057912
2020,110538,California State University-Chico,Chico,CA,95929,1,7,4,-121.844859,39.729712
2020,110547,California State University-Dominguez Hills,Carson,CA,90747,1,8,4,-118.255917,33.864766
2020,110556,California State University-Fresno,Fresno,CA,93740,1,9,5,-119.744569,36.811154
2020,110565,California State University-Fullerton,Fullerton,CA,92831,1,9,5,-117.885446,33.881506
2020,110574,California State University-East Bay,Hayward,CA,94542,1,9,4,-122.054135,37.657694
2020,110583,California State University-Long Beach,Long Beach,CA,90840,1,9,5,-118.11204,33.782818
2020,110592,California State University-Los Angeles,Los Angeles,CA,90032,1,9,5,-118.168965,34.066927
2020,110608,California State University-Northridge,Northridge,CA,91330,1,9,5,-118.529319,34.240126
2020,110617,California State University-Sacramento,Sacramento,CA,95819,1,9,5,-121.423549,38.559415
2020,110635,University of California-Berkeley,Berkeley,CA,94720,1,9,5,-122.260463,37.871918
2020,110644,University of California-Davis,Davis,CA,95616,1,9,5,-121.749567,38.539667
2020,110653,University of California-Irvine,Irvine,CA,92697,1,9,5,-117.841248,33.648434
2020,110662,University of California-Los Angeles,Los Angeles,CA,90095,1,9,5,-118.442179,34.07178
2020,110671,University of California-Riverside,Riverside,CA,92521,1,9,5,-117.32741,33.97246
2020,110680,University of California-San Diego,La Jolla,CA,92093,1,9,5,-117.235866,32.877749
2020,110699,University of California-San Francisco,San Francisco,CA,94143,1,9,2,-122.458489,37.763737
2020,110705,University of California-Santa Barbara,Santa Barbara,CA,93106,1,9,5,-119.846426,34.416297
2020,110714,University of California-Santa Cruz,Santa Cruz,CA,95064,1,9,4,-122.058801,36.995584
2020,110778,Sofia University,Palo Alto,CA,94303,3,9,2,-122.10866,37.430325
2020,110875,California Beauty School,Modesto,CA,95354,3,2,1,-120.99689,37.645217
2020,110918,California Christian College,Fresno,CA,93727,2,5,1,-119.711123,36.749366
2020,111045,Haven University,Garden Grove,CA,92840,2,9,1,-117.939412,33.777392
2020,111054,California Hair Design Academy,La Mesa,CA,91942,3,2,1,-117.024261,32.765221
2020,111081,California Institute of the Arts,Valencia,CA,91355,2,9,2,-118.566837,34.39327
2020,111188,California State University Maritime Academy,Vallejo,CA,94590,1,7,1,-122.231551,38.069061
2020,111391,California Western School of Law,San Diego,CA,92101,2,9,1,-117.162416,32.722192
2020,111434,Canada College,Redwood City,CA,94061,1,4,3,-122.265398,37.44877
2020,111461,College of the Canyons,Santa Clarita,CA,91355,1,3,5,-118.568698,34.403993
2020,111513,Career Academy of Beauty,Garden Grove,CA,92845,3,4,1,-118.031697,33.781018
2020,111638,Casa Loma College-Van Nuys,Van Nuys,CA,91405,2,5,1,-118.457781,34.192829
2020,111708,CET-San Diego,San Diego,CA,92102,2,2,1,-117.105328,32.711302
2020,111717,CET-San Jose,San Jose,CA,95110,2,2,1,-121.88698,37.322723
2020,111726,CET-El Centro,El Centro,CA,92243,2,2,1,-115.549079,32.790908
2020,111744,CET-Colton,Colton,CA,92324,2,2,1,-117.353488,34.077381
2020,111762,CET-Watsonville,Watsonville,CA,95076,2,2,1,-121.767991,36.931833
2020,111799,CET-Salinas,Salinas,CA,93906,2,2,1,-121.65236,36.707333
2020,111887,Cerritos College,Norwalk,CA,90650,1,4,5,-118.097337,33.886874
2020,111896,Cerro Coso Community College,Ridgecrest,CA,93555,1,3,3,-117.66767,35.567525
2020,111920,Chabot College,Hayward,CA,94545,1,3,4,-122.105636,37.642458
2020,111939,Chaffey College,Rancho Cucamonga,CA,91737,1,4,5,-117.573932,34.147663
2020,111948,Chapman University,Orange,CA,92866,2,9,3,-117.852518,33.79302
2020,111966,Charles R Drew University of Medicine and Science,Los Angeles,CA,90059,2,8,1,-118.242791,33.925658
2020,112075,Concordia University-Irvine,Irvine,CA,92612,2,9,2,-117.812305,33.653665
2020,112084,San Diego Christian College,Santee,CA,92071,2,7,1,-116.978112,32.842404
2020,112127,Church Divinity School of the Pacific,Berkeley,CA,94709,2,7,1,-122.261122,37.876184
2020,112172,Citrus College,Glendora,CA,91741,1,4,4,-117.886469,34.13537
2020,112181,Citrus Heights Beauty College,Citrus Heights,CA,95610,3,2,1,-121.289529,38.712951
2020,112190,City College of San Francisco,San Francisco,CA,94112,1,4,4,-122.451155,37.725953
2020,112251,Claremont Graduate University,Claremont,CA,91711,2,9,2,-117.713703,34.103585
2020,112260,Claremont McKenna College,Claremont,CA,91711,2,7,2,-117.711188,34.102154
2020,112288,Milan Institute-Visalia,Visalia,CA,93277,3,2,1,-119.312151,36.27164
2020,112367,Clovis Adult Education,Clovis,CA,93611,1,2,1,-119.690369,36.834459
2020,112376,Coast Community College District Office,Costa Mesa,CA,92626,1,4,-2,-117.916066,33.674004
2020,112385,Coastline Community College,Fountain Valley,CA,92708,1,3,3,-117.929143,33.715634
2020,112394,Cogswell University of Silicon Valley,San Jose,CA,95134,3,7,1,-121.94087,37.414049
2020,112455,Coba Academy,Anaheim,CA,92801,3,2,1,-117.943108,33.841141
2020,112525,Western University of Health Sciences,Pomona,CA,91766,2,9,2,-117.747732,34.058092
2020,112561,Columbia College,Sonora,CA,95370,1,3,2,-120.388385,38.030367
2020,112570,Columbia College Hollywood,Tarzana,CA,91356,2,5,1,-118.538793,34.17972
2020,112686,Compton College,Compton,CA,90221,1,3,2,-118.209463,33.878226
2020,112817,Contra Costa Community College District Office,Martinez,CA,94553,1,3,-2,-122.135335,38.019072
2020,112826,Contra Costa College,San Pablo,CA,94806,1,3,3,-122.337377,37.969381
2020,113096,Cosumnes River College,Sacramento,CA,95823,1,4,4,-121.423108,38.45295
2020,113111,Crafton Hills College,Yucaipa,CA,92339,1,4,3,-117.101173,34.039178
2020,113193,Cuesta College,San Luis Obispo,CA,93403,1,4,4,-120.742235,35.331276
2020,113218,Cuyamaca College,El Cajon,CA,92019,1,3,3,-116.943507,32.744954
2020,113236,Cypress College,Cypress,CA,90630,1,5,4,-118.025143,33.82833
2020,113333,De Anza College,Cupertino,CA,95014,1,4,4,-122.045783,37.319914
2020,113449,International School of Beauty Inc,Palm Desert,CA,92260,3,2,1,-116.403928,33.729555
2020,113537,Dell'Arte International School of Physical Theatre,Blue Lake,CA,95525,2,7,1,-123.988808,40.880924
2020,113573,College of the Desert,Palm Desert,CA,92260,1,3,4,-116.388271,33.732108
2020,113582,Design Institute of San Diego,San Diego,CA,92121,3,7,1,-117.167374,32.880926
2020,113634,Diablo Valley College,Pleasant Hill,CA,94523,1,3,4,-122.073142,37.968516
2020,113698,Dominican University of California,San Rafael,CA,94901,2,7,2,-122.512051,37.981279
2020,113704,Dominican School of Philosophy & Theology,Berkeley,CA,94708,2,7,1,-122.264612,37.881099
2020,113856,East Los Angeles College,Monterey Park,CA,91754,1,4,5,-118.148785,34.040531
2020,113980,El Camino Community College District,Torrance,CA,90506,1,4,5,-118.329913,33.885229
2020,114114,Emperor's College of Traditional Oriental Medicine,Santa Monica,CA,90403,3,9,1,-118.485119,34.030438
2020,114123,Empire College,Santa Rosa,CA,95403,3,9,1,-122.729337,38.468052
2020,114266,Evergreen Valley College,San Jose,CA,95135,1,3,3,-121.76561,37.30167
2020,114354,FIDM-Fashion Institute of Design & Merchandising-Los Angeles,Los Angeles,CA,90015,3,7,2,-118.25993,34.044209
2020,114390,FIDM-Fashion Institute of Design & Merchandising-San Francisco,San Francisco,CA,94108,3,5,1,-122.406651,37.786353
2020,114433,Feather River Community College District,Quincy,CA,95971,1,5,2,-120.973067,39.953101
2020,114460,Federico Beauty Institute,Sacramento,CA,95834,3,2,1,-121.497761,38.64883
2020,114549,Fielding Graduate University,Santa Barbara,CA,93105,2,9,2,-119.717161,34.42941
2020,114585,Five Branches University,Santa Cruz,CA,95062,3,9,1,-121.998245,36.964348
2020,114637,Redondo Beach Beauty College,Redondo Beach,CA,90278,3,2,1,-118.372137,33.873098
2020,114716,Foothill College,Los Altos Hills,CA,94022,1,5,4,-122.127964,37.361655
2020,114734,Franciscan School of Theology,San Diego,CA,92110,2,8,1,-117.192073,32.770816
2020,114761,Fredrick and Charles Beauty College,Eureka,CA,95501,3,2,1,-124.164986,40.798885
2020,114789,Fresno City College,Fresno,CA,93741,1,4,5,-119.796096,36.768164
2020,114813,Fresno Pacific University,Fresno,CA,93702,2,7,2,-119.735199,36.726831
2020,114831,Foothill-De Anza Community College District,Los Altos Hills,CA,94022,1,5,-2,-122.12796,37.361664
2020,114840,Fuller Theological Seminary,Pasadena,CA,91182,2,9,2,-118.140261,34.14778
2020,114859,Fullerton College,Fullerton,CA,92832,1,4,5,-117.918255,33.875514
2020,114938,Gavilan College,Gilroy,CA,95020,1,3,2,-121.569842,36.972627
2020,114947,Gemological Institute of America-Carlsbad,Carlsbad,CA,92008,2,1,1,-117.318765,33.131313
2020,115001,Glendale Community College,Glendale,CA,91208,1,4,4,-118.227666,34.16745
2020,115010,Glendale Career College,Glendale,CA,91203,3,5,1,-118.254719,34.149771
2020,115083,Golden Gate University-San Francisco,San Francisco,CA,94105,2,9,2,-122.398969,37.789374
2020,115126,Golden West College,Huntington Beach,CA,92647,1,3,4,-118.002568,33.732531
2020,115214,Graduate Theological Union,Berkeley,CA,94709,2,9,1,-122.261847,37.87554
2020,115287,Grossmont-Cuyamaca Community College District,El Cajon,CA,92020,1,4,-2,-117.006277,32.815246
2020,115296,Grossmont College,El Cajon,CA,92020,1,4,4,-117.006277,32.815246
2020,115357,Salon Success Academy-Riverside,Riverside,CA,92506,3,2,1,-117.391024,33.943149
2020,115393,Hartnell College,Salinas,CA,93901,1,3,3,-121.666054,36.675091
2020,115409,Harvey Mudd College,Claremont,CA,91711,2,5,1,-117.709837,34.106515
2020,115658,Hilltop Beauty School,Daly City,CA,94014,3,2,1,-122.461467,37.705502
2020,115728,Holy Names University,Oakland,CA,94619,2,8,2,-122.187804,37.802276
2020,115746,Pacifica Graduate Institute,Carpinteria,CA,93013,3,9,1,-119.580414,34.420881
2020,115755,Humboldt State University,Arcata,CA,95521,1,7,3,-124.078293,40.877481
2020,115773,Humphreys University-Stockton and Modesto Campuses,Stockton,CA,95207,2,9,1,-121.316918,38.011489
2020,115861,Imperial Valley College,Imperial,CA,92251,1,3,3,-115.503563,32.827209
2020,115931,Institute for Business and Technology,Santa Clara,CA,95051,3,3,1,-121.969541,37.368642
2020,116226,Interior Designers Institute,Newport Beach,CA,92660,3,7,1,-117.865722,33.641393
2020,116350,International School of Cosmetology,Los Angeles,CA,90036,3,2,1,-118.361176,34.080053
2020,116439,Irvine Valley College,Irvine,CA,92618,1,3,4,-117.777539,33.675381
2020,116563,Bellus Academy-El Cajon,El Cajon,CA,92021,3,4,1,-116.94627,32.794072
2020,116712,John F. Kennedy University,Pleasant Hill,CA,94523,2,9,2,-122.054761,37.956616
2020,116846,American Jewish University,Los Angeles,CA,90077,2,7,1,-118.471706,34.128153
2020,117052,Reedley College,Reedley,CA,93654,1,4,3,-119.458555,36.605428
2020,117104,Life Pacific University,San Dimas,CA,91773,2,7,1,-117.829388,34.098705
2020,117140,University of La Verne,La Verne,CA,91750,2,9,3,-117.773262,34.100855
2020,117168,Laguna College of Art and Design,Laguna Beach,CA,92651,2,7,1,-117.772564,33.561448
2020,117195,Lake Tahoe Community College,South Lake Tahoe,CA,96150,1,3,2,-119.972574,38.926797
2020,117238,Lancaster Beauty School,Lancaster,CA,93534,3,2,1,-118.147547,34.694914
2020,117247,Laney College,Oakland,CA,94607,1,3,3,-122.26283,37.797257
2020,117274,Lassen Community College,Susanville,CA,96130,1,3,2,-120.633271,40.432053
2020,117283,Latin American Bible Institute,La Puente,CA,91746,2,5,1,-117.989601,34.030992
2020,117520,Life Chiropractic College West,Hayward,CA,94545,2,9,1,-122.117619,37.638099
2020,117557,Lincoln University,Oakland,CA,94612,2,9,1,-122.269745,37.804788
2020,117575,Southern California Seminary,El Cajon,CA,92019,2,9,1,-116.905461,32.799614
2020,117627,La Sierra University,Riverside,CA,92505,2,9,2,-117.500054,33.910704
2020,117636,Loma Linda University,Loma Linda,CA,92350,2,9,2,-117.260605,34.051241
2020,117645,Long Beach City College,Long Beach,CA,90808,1,4,5,-118.135633,33.833593
2020,117672,Southern California University of Health Sciences,Whittier,CA,90604,2,9,2,-117.983401,33.922966
2020,117681,Los Angeles Community College District Office,Los Angeles,CA,90017,1,5,-2,-118.258047,34.048969
2020,117690,Los Angeles Harbor College,Wilmington,CA,90744,1,3,3,-118.283549,33.785825
2020,117706,Los Angeles Pierce College,Woodland Hills,CA,91371,1,3,4,-118.575071,34.183949
2020,117715,Los Angeles Southwest College,Los Angeles,CA,90047,1,3,3,-118.304674,33.929586
2020,117724,Los Angeles Trade Technical College,Los Angeles,CA,90015,1,3,4,-118.269447,34.031907
2020,117733,Los Angeles Valley College,Valley Glen,CA,91401,1,4,4,-118.421734,34.175165
2020,117751,The Master's University and Seminary,Santa Clarita,CA,91321,2,9,2,-118.518193,34.381755
2020,117788,Los Angeles City College,Los Angeles,CA,90029,1,4,4,-118.292169,34.087301
2020,117803,Los Angeles County College of Nursing and Allied Health,Los Angeles,CA,90033,1,3,1,-118.211852,34.062647
2020,117867,Los Angeles Mission College,Sylmar,CA,91342,1,3,3,-118.4195,34.314668
2020,117894,Los Medanos College,Pittsburg,CA,94565,1,3,3,-121.860967,38.006474
2020,117900,Los Rios Community College District Office,Sacramento,CA,95825,1,4,-2,-121.417145,38.579859
2020,117946,Loyola Marymount University,Los Angeles,CA,90045,2,9,3,-118.415744,33.97085
2020,117955,Lu Ross Academy,Ventura,CA,93001,3,2,1,-119.293952,34.278034
2020,118134,Lyle's College of Beauty,Bakersfield,CA,93301,3,2,1,-119.02387,35.386539
2020,118143,Lyle's College of  Beauty,Fresno,CA,93710,3,2,1,-119.774167,36.836265
2020,118161,Lytles Redwood Empire Beauty College Inc,Santa Rosa,CA,95403,3,2,1,-122.75777,38.508385
2020,118198,MTI College,Sacramento,CA,95841,3,4,1,-121.342568,38.661377
2020,118347,College of Marin,Kentfield,CA,94904,1,4,2,-122.549149,37.954897
2020,118541,Marymount California University,Rancho Palos Verdes,CA,90275,2,7,1,-118.333371,33.734887
2020,118684,Mendocino College,Ukiah,CA,95482,1,3,2,-123.228809,39.188989
2020,118693,Menlo College,Atherton,CA,94027,2,5,1,-122.190797,37.453475
2020,118718,Merced College,Merced,CA,95348,1,4,4,-120.476464,37.3353
2020,118772,Merritt College,Oakland,CA,94619,1,4,3,-122.167335,37.789088
2020,118888,Mills College,Oakland,CA,94613,2,9,1,-122.182294,37.781425
2020,118912,MiraCosta College,Oceanside,CA,92056,1,5,4,-117.302606,33.190483
2020,118930,Mission College,Santa Clara,CA,95054,1,4,3,-121.980783,37.391935
2020,118958,Modern Beauty Academy,Oxnard,CA,93030,3,2,1,-119.181423,34.195384
2020,118976,Modesto Junior College,Modesto,CA,95350,1,5,4,-121.009792,37.651056
2020,118994,Moler Barber College,Oakland,CA,94609,3,2,1,-122.265352,37.827075
2020,119058,Middlebury Institute of International Studies at Monterey,Monterey,CA,93940,2,7,1,-121.897325,36.599736
2020,119067,Monterey Peninsula College,Monterey,CA,93940,1,3,3,-121.884931,36.590558
2020,119137,Moorpark College,Moorpark,CA,93021,1,4,4,-118.834528,34.301146
2020,119164,Mt San Antonio College,Walnut,CA,91789,1,3,5,-117.846629,34.047764
2020,119173,Mount Saint Mary's University,Los Angeles,CA,90049,2,9,2,-118.482879,34.085315
2020,119216,Mt San Jacinto Community College District,San Jacinto,CA,92583,1,3,4,-116.971169,33.806748
2020,119270,Musicians Institute,Hollywood,CA,90028,3,5,1,-118.337582,34.101265
2020,119331,Napa Valley College,Napa,CA,94558,1,3,2,-122.274381,38.274081
2020,119553,National Holistic Institute,Emeryville,CA,94608,3,2,2,-122.287672,37.841898
2020,119605,National University,La Jolla,CA,92037,2,9,4,-117.243026,32.909894
2020,119678,Naval Postgraduate School,Monterey,CA,93943,1,9,2,-121.874248,36.597159
2020,119775,Newschool of Architecture and Design,San Diego,CA,92101,3,7,1,-117.153305,32.71331
2020,119845,Newberry School of Beauty,Granada Hills,CA,91344,3,2,1,-118.499693,34.256683
2020,119951,North Adrian's College of Beauty Inc,Modesto,CA,95350,3,2,1,-120.992753,37.677778
2020,120023,North Orange County Community College District,Anaheim,CA,92801,1,5,-2,-117.945559,33.849957
2020,120069,North-West College-Pomona,Pomona,CA,91768,3,2,1,-117.751227,34.062043
2020,120078,North-West College-West Covina,West Covina,CA,91790,3,4,1,-117.949583,34.072071
2020,120087,North-West College-Van Nuys,Van Nuys,CA,91411,3,2,1,-118.450184,34.189497
2020,120166,Northwestern Polytechnic University,Fremont,CA,94539,2,7,1,-121.925953,37.477991
2020,120184,Notre Dame de Namur University,Belmont,CA,94002,2,9,1,-122.284794,37.517111
2020,120254,Occidental College,Los Angeles,CA,90041,2,7,2,-118.210908,34.127124
2020,120290,Ohlone College,Fremont,CA,94539,1,3,3,-121.916339,37.52773
2020,120342,Orange Coast College,Costa Mesa,CA,92626,1,4,4,-117.909086,33.66927
2020,120403,Otis College of Art and Design,Los Angeles,CA,90045,2,7,2,-118.416615,33.956607
2020,120421,Oxnard College,Oxnard,CA,93033,1,3,3,-119.157604,34.166104
2020,120537,Hope International University,Fullerton,CA,92831,2,7,2,-117.88573,33.87616
2020,120661,Concorde Career College-San Diego,San Diego,CA,92113,3,3,1,-117.102845,32.702814
2020,120698,Palo Alto University,Palo Alto,CA,94304,2,9,2,-122.187437,37.382216
2020,120768,Pacific Oaks College,Pasadena,CA,91103,2,7,2,-118.151323,34.153382
2020,120795,Pacific School of Religion,Berkeley,CA,94709,2,9,1,-122.263155,37.87669
2020,120838,Pacific States University,Los Angeles,CA,90010,2,7,1,-118.298408,34.061315
2020,120865,Pacific Union College,Angwin,CA,94508,2,7,1,-122.440308,38.570585
2020,120883,University of the Pacific,Stockton,CA,95211,2,9,3,-121.312301,37.981424
2020,120953,Palo Verde College,Blythe,CA,92225,1,3,2,-114.651698,33.661538
2020,120971,Palomar College,San Marcos,CA,92069,1,3,5,-117.183978,33.149483
2020,121044,Pasadena City College,Pasadena,CA,91106,1,4,5,-118.118196,34.144552
2020,121150,Pepperdine University,Malibu,CA,90263,2,9,3,-118.707077,34.037786
2020,121178,Peralta Community College System Office,Oakland,CA,94606,1,4,-2,-122.260837,37.792667
2020,121257,Pitzer College,Claremont,CA,91711,2,5,1,-117.706675,34.104107
2020,121275,Platt College-San Diego,San Diego,CA,92115,3,5,1,-117.063483,32.76373
2020,121309,Point Loma Nazarene University,San Diego,CA,92106,2,9,2,-117.250265,32.718391
2020,121345,Pomona College,Claremont,CA,91711,2,5,2,-117.714556,34.099027
2020,121363,Porterville College,Porterville,CA,93257,1,3,2,-119.014368,36.049256
2020,121433,Professional Institute of Beauty,El Monte,CA,91731,3,2,1,-118.039028,34.075561
2020,121619,Santa Ana College,Santa Ana,CA,92706,1,5,5,-117.887558,33.759309
2020,121628,Pardee RAND Graduate School,Santa Monica,CA,90401,2,9,1,-118.490655,34.00973
2020,121637,Shasta School of Cosmetology,Redding,CA,96003,3,2,1,-122.387248,40.597114
2020,121691,University of Redlands,Redlands,CA,92373,2,9,2,-117.163218,34.064218
2020,121707,College of the Redwoods,Eureka,CA,95501,1,4,2,-124.195293,40.698427
2020,121859,Salon Success Academy-Upland,Upland,CA,91786,3,2,1,-117.631783,34.108247
2020,121868,Salon Success Academy-Corona,Corona,CA,92881,3,2,1,-117.535638,33.847649
2020,121886,Rio Hondo College,Whittier,CA,90601,1,5,4,-118.033506,34.019821
2020,121901,Riverside City College,Riverside,CA,92506,1,3,5,-117.384323,33.970918
2020,121992,Rosemead Beauty School,Rosemead,CA,91770,3,2,1,-118.082793,34.080756
2020,122117,Dongguk University Los Angeles,Los Angeles,CA,90020,2,9,1,-118.289523,34.06597
2020,122180,Sacramento City College,Sacramento,CA,95822,1,4,5,-121.491139,38.541096
2020,122205,Saddleback College,Mission Viejo,CA,92692,1,4,4,-117.665584,33.553346
2020,122296,Samuel Merritt University,Oakland,CA,94609,2,9,2,-122.266331,37.82029
2020,122320,San Diego Community College District-District Office,San Diego,CA,92108,1,5,-2,-117.120504,32.776275
2020,122339,San Diego City College,San Diego,CA,92101,1,3,4,-117.152733,32.717403
2020,122375,San Diego Mesa College,San Diego,CA,92111,1,5,5,-117.169165,32.803825
2020,122384,San Diego Miramar College,San Diego,CA,92126,1,4,4,-117.120261,32.909757
2020,122409,San Diego State University,San Diego,CA,92182,1,9,5,-117.071228,32.77525
2020,122436,University of San Diego,San Diego,CA,92110,2,9,3,-117.192073,32.770816
2020,122454,San Francisco Art Institute,San Francisco,CA,94133,2,7,1,-122.417,37.803575
2020,122506,San Francisco Conservatory of Music,San Francisco,CA,94102,2,8,1,-122.420292,37.775543
2020,122597,San Francisco State University,San Francisco,CA,94132,1,9,5,-122.476799,37.721224
2020,122603,University of Redlands Graduate School of Theology,San Anselmo,CA,94960,2,9,-2,-122.565407,37.969952
2020,122612,University of San Francisco,San Francisco,CA,94117,2,9,4,-122.450477,37.776618
2020,122649,San Joaquin College of Law,Clovis,CA,93612,2,9,1,-119.697657,36.82448
2020,122658,San Joaquin Delta College,Stockton,CA,95207,1,4,4,-121.317597,37.995562
2020,122685,San Joaquin Valley College-Visalia,Visalia,CA,93291,3,5,2,-119.384981,36.328049
2020,122694,San Joaquin Valley College-Bakersfield,Bakersfield,CA,93309,3,3,1,-119.062071,35.352848
2020,122728,William Jessup University,Rocklin,CA,95765,2,7,2,-121.292312,38.819728
2020,122737,San Jose-Evergreen Community College District,San Jose,CA,95113,1,3,-2,-121.89118,37.334851
2020,122746,San Jose City College,San Jose,CA,95128,1,3,3,-121.926185,37.315827
2020,122755,San Jose State University,San Jose,CA,95192,1,9,5,-121.880621,37.336569
2020,122782,San Mateo County Community College District Office,San Mateo,CA,94402,1,5,-2,-122.337627,37.531305
2020,122791,College of San Mateo,San Mateo,CA,94402,1,3,3,-122.334801,37.535698
2020,122834,Santa Barbara Business College-Bakersfield,Bakersfield,CA,93309,3,7,1,-119.061264,35.359544
2020,122852,Santa Barbara Business College-Santa Maria,Santa Maria,CA,93454,3,5,1,-120.433296,34.937806
2020,122889,Santa Barbara City College,Santa Barbara,CA,93109,1,4,4,-119.698045,34.406788
2020,122931,Santa Clara University,Santa Clara,CA,95053,2,9,3,-121.93784,37.348362
2020,122977,Santa Monica College,Santa Monica,CA,90405,1,5,5,-118.469765,34.017022
2020,123013,Santa Rosa Junior College,Santa Rosa,CA,95401,1,4,4,-122.718974,38.45709
2020,123095,Saybrook University,Pasadena,CA,91103,2,9,1,-118.152155,34.153103
2020,123165,Scripps College,Claremont,CA,91711,2,6,1,-117.711294,34.104147
2020,123217,College of the Sequoias,Visalia,CA,93277,1,4,4,-119.315182,36.323877
2020,123280,Shasta Bible College and Graduate School,Redding,CA,96002,2,7,1,-122.314419,40.566034
2020,123299,Shasta College,Redding,CA,96003,1,5,3,-122.317982,40.625731
2020,123341,Sierra College,Rocklin,CA,95677,1,3,4,-121.211688,38.790773
2020,123350,Sierra College of Beauty,Merced,CA,95340,3,2,1,-120.495874,37.306975
2020,123448,Trinity Law School,Santa Ana,CA,92705,2,9,1,-117.852059,33.766071
2020,123457,Simpson University,Redding,CA,96003,2,7,1,-122.332981,40.61334
2020,123484,College of the Siskiyous,Weed,CA,96094,1,3,2,-122.38909,41.413005
2020,123493,Charles A Jones Career and Education Center,Sacramento,CA,95824,1,4,1,-121.440796,38.516233
2020,123509,Skyline College,San Bruno,CA,94066,1,3,3,-122.467335,37.63042
2020,123527,San Bernardino Valley College,San Bernardino,CA,92410,1,4,4,-117.313248,34.086353
2020,123554,Saint Mary's College of California,Moraga,CA,94575,2,9,2,-122.109031,37.840731
2020,123563,Solano Community College,Fairfield,CA,94534,1,5,3,-122.122368,38.235881
2020,123572,Sonoma State University,Rohnert Park,CA,94928,1,8,3,-122.677066,38.340274
2020,123633,South Baylo University,Anaheim,CA,92801,2,9,1,-117.958416,33.848291
2020,123642,South Coast College,Orange,CA,92868,3,4,1,-117.874031,33.78818
2020,123651,Vanguard University of Southern California,Costa Mesa,CA,92626,2,8,2,-117.900911,33.662686
2020,123679,Concorde Career College-Garden Grove,Garden Grove,CA,92840,3,3,1,-117.938395,33.774741
2020,123800,Southwestern College,Chula Vista,CA,91910,1,4,4,-116.996803,32.640281
2020,123855,St John's Seminary,Camarillo,CA,93012,2,7,-1,-119.001867,34.243921
2020,123916,Starr King School for the Ministry,Oakland,CA,94613,2,7,1,-122.182294,37.781425
2020,123925,State Center Community College District,Fresno,CA,93721,1,4,-2,-119.792324,36.735642
2020,123943,Marshall B Ketchum University,Fullerton,CA,92831,2,9,1,-117.886229,33.889348
2020,123952,Southern California Institute of Architecture,Los Angeles,CA,90013,2,7,1,-118.232799,34.044215
2020,123961,University of Southern California,Los Angeles,CA,90089,2,9,5,-118.284169,34.021281
2020,123970,Southwestern Law School,Los Angeles,CA,90010,2,9,1,-118.288375,34.061558
2020,124113,Taft College,Taft,CA,93268,1,3,2,-119.459751,35.149343
2020,124283,Claremont School of Theology,Claremont,CA,91711,2,9,1,-117.715256,34.107602
2020,124292,Thomas Aquinas College,Santa Paula,CA,93060,2,5,1,-119.087141,34.429009
2020,124487,Epic Bible College,Sacramento,CA,95841,2,9,1,-121.362642,38.645152
2020,124557,University of California-System Administration Central Office,Oakland,CA,94607,1,9,-2,-122.27134,37.802222
2020,124681,United Education Institute-Huntington Park Campus,Huntington Park,CA,90255,3,2,2,-118.226206,33.986057
2020,124706,Concorde Career College-San Bernardino,San Bernardino,CA,92408,3,3,1,-117.283995,34.066823
2020,124937,Concorde Career College-North Hollywood,North Hollywood,CA,91606,3,3,1,-118.403627,34.186407
2020,125019,Ventura County Community College System Office,Camarillo,CA,93010,1,4,-2,-119.057951,34.219073
2020,125028,Ventura College,Ventura,CA,93003,1,3,4,-119.230604,34.277393
2020,125037,The Santa Barbara and Ventura Colleges of Law at Ventura,Ventura,CA,93003,2,9,1,-119.232988,34.25747
2020,125082,Bridges Beauty College,Victorville,CA,92395,3,2,1,-117.303933,34.528602
2020,125091,Victor Valley College,Victorville,CA,92395,1,4,4,-117.261456,34.472231
2020,125170,Berkeley City College,Berkeley,CA,94704,1,3,3,-122.269877,37.869769
2020,125222,West Valley Mission Community College District Office,Saratoga,CA,95070,1,4,-2,-122.008324,37.26398
2020,125231,Walden University,Minneapolis,MN,55401,3,9,5,-93.265738,44.98125
2020,125310,Waynes College of Beauty,Salinas,CA,93906,3,2,1,-121.652672,36.700635
2020,125462,West Hills College-Coalinga,Coalinga,CA,93210,1,3,2,-120.356747,36.147891
2020,125471,West Los Angeles College,Culver City,CA,90230,1,5,4,-118.386664,34.004512
2020,125499,West Valley College,Saratoga,CA,95070,1,4,3,-122.008324,37.26398
2020,125532,Carrington College-Sacramento,Sacramento,CA,95826,3,3,2,-121.371331,38.556151
2020,125718,Westminster Theological Seminary in California,Escondido,CA,92027,2,7,1,-117.046371,33.121447
2020,125727,Westmont College,Santa Barbara,CA,93108,2,5,2,-119.662517,34.450151
2020,125763,Whittier College,Whittier,CA,90601,2,7,2,-118.032299,33.978773
2020,125897,Woodbury University,Burbank,CA,91504,2,7,2,-118.341147,34.208011
2020,126012,The Wright Institute,Berkeley,CA,94704,2,9,1,-122.253168,37.868221
2020,126049,Thomas Jefferson School of Law,San Diego,CA,92101,2,9,1,-117.157862,32.717595
2020,126076,Yeshiva Ohr Elchonon Chabad West Coast Talmudical Seminary,Los Angeles,CA,90046,2,5,1,-118.346613,34.085465
2020,126100,Yosemite Community College District Office,Modesto,CA,95358,1,5,-2,-121.040246,37.66107
2020,126119,Yuba College,Marysville,CA,95901,1,3,3,-121.53964,39.126536
2020,126164,The Salon Professional Academy-Grand Junction,Grand Junction,CO,81501,3,4,1,-108.56521,39.078114
2020,126182,Adams State University,Alamosa,CO,81101,1,9,2,-105.879642,37.473636
2020,126207,Aims Community College,Greeley,CO,80634,1,3,3,-104.763415,40.409559
2020,126289,Arapahoe Community College,Littleton,CO,80160,1,5,4,-105.018631,39.607505
2020,126359,Bel-Rea Institute of Animal Technology,Denver,CO,80247,3,3,1,-104.876207,39.686194
2020,126562,University of Colorado Denver/Anschutz Medical Campus,Denver,CO,80217,1,9,5,-104.837722,39.745149
2020,126580,University of Colorado Colorado Springs,Colorado Springs,CO,80918,1,9,4,-104.800296,38.892735
2020,126605,Spartan College of Aeronautics and Technology,Broomfield,CO,80021,3,3,1,-105.119096,39.914822
2020,126614,University of Colorado Boulder,Boulder,CO,80309,1,9,5,-105.270823,40.008781
2020,126669,Colorado Christian University,Lakewood,CO,80226,2,9,3,-105.09456,39.71388
2020,126678,Colorado College,Colorado Springs,CO,80903,2,7,2,-104.822697,38.84886
2020,126687,Concorde Career College-Aurora,Aurora,CO,80010,3,3,1,-104.867089,39.718699
2020,126711,Colorado Mountain College,Glenwood Springs,CO,81601,1,5,3,-107.324441,39.54636
2020,126748,Colorado Northwestern Community College,Rangely,CO,81648,1,4,1,-108.790048,40.081112
2020,126775,Colorado School of Mines,Golden,CO,80401,1,9,3,-105.223364,39.751443
2020,126784,Colorado School of Trades,Lakewood,CO,80215,3,3,1,-105.104174,39.74181
2020,126818,Colorado State University-Fort Collins,Fort Collins,CO,80523,1,9,5,-105.080732,40.574805
2020,126827,Colorado Technical University-Colorado Springs,Colorado Springs,CO,80907,3,9,5,-104.833928,38.894265
2020,126863,Community College of Aurora,Aurora,CO,80011,1,3,3,-104.802673,39.71788
2020,126872,CollegeAmerica-Denver,Denver,CO,80222,2,3,1,-104.941168,39.691571
2020,126915,Technical College of the Rockies,Delta,CO,81416,1,2,1,-108.031072,38.702524
2020,126942,Community College of Denver,Denver,CO,80204,1,5,3,-105.001044,39.741413
2020,126951,Lincoln College of Technology-Denver,Denver,CO,80239,3,4,2,-104.856171,39.77651
2020,126979,Denver Seminary,Littleton,CO,80120,2,9,1,-105.022363,39.600595
2020,127060,University of Denver,Denver,CO,80208,2,9,4,-104.963259,39.678005
2020,127158,Emily Griffith Technical College,Denver,CO,80203,1,2,3,-104.985751,39.74575
2020,127185,Fort Lewis College,Durango,CO,81301,1,7,2,-107.867422,37.275939
2020,127200,Front Range Community College,Westminster,CO,80031,1,5,4,-105.038068,39.901452
2020,127273,Iliff School of Theology,Denver,CO,80210,2,9,1,-104.960657,39.675927
2020,127316,International Salon and Spa Academy,Colorado Springs,CO,80918,3,2,1,-104.786252,38.913621
2020,127389,Lamar Community College,Lamar,CO,81052,1,3,1,-102.616144,38.068886
2020,127556,Colorado Mesa University,Grand Junction,CO,81501,1,9,3,-108.553275,39.080643
2020,127565,Metropolitan State University of Denver,Denver,CO,80217,1,7,4,-105.00504,39.744202
2020,127617,Morgan Community College,Fort  Morgan,CO,80701,1,5,2,-103.771822,40.258792
2020,127653,Naropa University,Boulder,CO,80302,2,7,1,-105.266987,40.014235
2020,127714,Nazarene Bible College,Colorado Springs,CO,80920,2,5,1,-104.803251,38.944824
2020,127732,Northeastern Junior College,Sterling,CO,80751,1,3,2,-103.197329,40.637215
2020,127741,University of Northern Colorado,Greeley,CO,80639,1,9,4,-104.692777,40.410855
2020,127778,Otero Junior College,La Junta,CO,81050,1,3,2,-103.544874,37.969984
2020,127820,Pikes Peak Community College,Colorado Springs,CO,80906,1,5,4,-104.787261,38.764287
2020,127884,Pueblo Community College,Pueblo,CO,81004,1,5,3,-104.636258,38.262124
2020,127909,Red Rocks Community College,Lakewood,CO,80228,1,7,3,-105.150094,39.720277
2020,127918,Regis University,Denver,CO,80221,2,9,3,-105.030756,39.788175
2020,127945,Rocky Mountain College of Art and Design,Lakewood,CO,80214,3,7,2,-105.069911,39.74332
2020,127954,Montessori Education Center of the Rockies,Boulder,CO,80301,2,6,1,-105.241331,40.019673
2020,128106,Colorado State University Pueblo,Pueblo,CO,81001,1,9,3,-104.579033,38.30859
2020,128151,Pickens Technical College,Aurora,CO,80011,1,4,1,-104.789683,39.723705
2020,128179,Intellitec College-Colorado Springs,Colorado Springs,CO,80909,3,3,1,-104.78721,38.832183
2020,128188,Intellitec College-Grand Junction,Grand Junction,CO,81506,3,3,1,-108.53062,39.116346
2020,128258,Trinidad State Junior College,Trinidad,CO,81082,1,3,2,-104.513451,37.172059
2020,128300,University of Colorado System Office,Denver,CO,80203,1,9,-2,-104.983277,39.74521
2020,128328,United States Air Force Academy,USAF Academy,CO,80840,1,5,2,-104.891358,39.010957
2020,128337,Empire Beauty School-Thornton,Thornton,CO,80233,3,2,1,-104.94357,39.915253
2020,128391,Western Colorado University,Gunnison,CO,81231,1,7,2,-106.919132,38.549936
2020,128498,Albertus Magnus College,New Haven,CT,6511,2,8,2,-72.923848,41.332519
2020,128577,Asnuntuck Community College,Enfield,CT,6082,1,3,2,-72.570177,41.998409
2020,128586,Bais Binyomin Academy,Monsey,NY,10952,2,5,1,-74.078802,41.123013
2020,128674,Branford Hall Career Institute-Branford Campus,Branford,CT,6405,3,2,-1,-72.848201,41.278557
2020,128744,University of Bridgeport,Bridgeport,CT,6604,2,9,2,-73.190166,41.164741
2020,128771,Central Connecticut State University,New Britain,CT,6050,1,9,4,-72.765991,41.692502
2020,128780,Charter Oak State College,New Britain,CT,6053,1,7,2,-72.767972,41.688246
2020,128896,Cortiva Institute-Cromwell,Cromwell,CT,6416,3,2,1,-72.678562,41.604041
2020,128902,Connecticut College,New London,CT,6320,2,5,2,-72.107321,41.379833
2020,129002,Porter and Chester Institute of Hamden,Hamden,CT,6514,3,2,1,-72.931908,41.346568
2020,129020,University of Connecticut,Storrs,CT,6269,1,9,5,-72.249948,41.809098
2020,129154,Goodwin University,East Hartford,CT,6118,2,7,2,-72.64032,41.742977
2020,129181,Lincoln Technical Institute-East Windsor,East Windsor,CT,6088,3,4,2,-72.596915,41.924248
2020,129215,Eastern Connecticut State University,Willimantic,CT,6226,1,7,2,-72.218753,41.721673
2020,129242,Fairfield University,Fairfield,CT,6824,2,9,3,-73.255903,41.157673
2020,129349,Paul Mitchell the School-North Haven,North Haven,CT,6473,3,2,1,-72.85745,41.394495
2020,129367,Capital Community College,Hartford,CT,6103,1,3,2,-72.672734,41.768397
2020,129428,Rensselaer at Hartford,Hartford,CT,6120,2,7,1,-72.673916,41.773462
2020,129482,American Institute-West Hartford,West Hartford,CT,6110,3,4,1,-72.725762,41.727016
2020,129491,Hartford Seminary,Hartford,CT,6105,2,9,1,-72.707766,41.769861
2020,129525,University of Hartford,West Hartford,CT,6117,2,9,3,-72.715213,41.798591
2020,129534,Holy Apostles College and Seminary,Cromwell,CT,6416,2,8,1,-72.647853,41.60682
2020,129543,Housatonic Community College,Bridgeport,CT,6604,1,3,2,-73.191003,41.175228
2020,129695,Manchester Community College,Manchester,CT,6040,1,3,2,-72.561939,41.761625
2020,129729,Naugatuck Valley Community College,Waterbury,CT,6708,1,3,3,-73.072963,41.549749
2020,129756,Middlesex Community College,Middletown,CT,6457,1,3,2,-72.611838,41.539516
2020,129774,Mitchell College,New London,CT,6320,2,5,1,-72.09523,41.328013
2020,129808,Three Rivers Community College,Norwich,CT,6360,1,3,2,-72.103039,41.509945
2020,129923,Lincoln Technical Institute-New Britain,New Britain,CT,6051,3,4,1,-72.754498,41.659236
2020,129932,New England Tractor Trailer Training School of Connecticut,Somers,CT,6071,3,1,1,-72.450218,41.979699
2020,129941,University of New Haven,West Haven,CT,6516,2,9,3,-72.961472,41.291314
2020,130004,Norwalk Community College,Norwalk,CT,6854,1,3,2,-73.450965,41.102574
2020,130040,Northwestern Connecticut Community College,Winsted,CT,6098,1,3,2,-73.058734,41.920668
2020,130110,Paier College of Art Inc,Hamden,CT,6514,3,5,1,-72.935048,41.347714
2020,130174,Porter and Chester Institute of Stratford,Stratford,CT,6615,3,2,2,-73.149023,41.169646
2020,130183,Post University,Waterbury,CT,6723,3,7,4,-73.081497,41.535549
2020,130217,Quinebaug Valley Community College,Danielson,CT,6239,1,3,2,-71.889673,41.82623
2020,130226,Quinnipiac University,Hamden,CT,6518,2,9,3,-72.894117,41.418915
2020,130253,Sacred Heart University,Fairfield,CT,6825,2,9,3,-73.243332,41.220893
2020,130314,University of Saint Joseph,West Hartford,CT,6117,2,9,2,-72.72965,41.781041
2020,130396,Gateway Community College,New Haven,CT,6510,1,3,3,-72.927682,41.303785
2020,130493,Southern Connecticut State University,New Haven,CT,6515,1,9,3,-72.947897,41.333225
2020,130509,Stone Academy-West Haven,West Haven,CT,6516,3,4,1,-72.976966,41.267503
2020,130590,Trinity College,Hartford,CT,6106,2,7,2,-72.690882,41.747451
2020,130606,Tunxis Community College,Farmington,CT,6032,1,3,2,-72.87754,41.705498
2020,130624,United States Coast Guard Academy,New London,CT,6320,1,5,2,-72.101583,41.375823
2020,130697,Wesleyan University,Middletown,CT,6459,2,9,2,-72.657146,41.554665
2020,130776,Western Connecticut State University,Danbury,CT,6810,1,9,3,-73.444264,41.400365
2020,130794,Yale University,New Haven,CT,6520,2,9,4,-72.926688,41.311158
2020,130837,Margaret H Rollins School of Nursing at Beebe Medical Center,Lewes,DE,19958,2,4,1,-75.142864,38.771565
2020,130873,Dawn Career Institute LLC,Newark,DE,19702,3,2,1,-75.677768,39.668605
2020,130882,Delaware Technical Community College-Central Office,Dover,DE,19901,1,5,-2,-75.5582,39.20109
2020,130907,Delaware Technical Community College-Terry,Dover,DE,19901,1,5,4,-75.56012,39.198371
2020,130934,Delaware State University,Dover,DE,19901,1,9,2,-75.54053,39.187173
2020,130943,University of Delaware,Newark,DE,19716,1,9,5,-75.752822,39.679577
2020,130989,Goldey-Beacom College,Wilmington,DE,19808,2,9,2,-75.689624,39.741501
2020,131061,Schilling-Douglas School of Hair Design LLC,Newark,DE,19711,3,2,1,-75.74178,39.711442
2020,131098,Wesley College,Dover,DE,19901,2,8,1,-75.527716,39.163182
2020,131113,Wilmington University,New Castle,DE,19720,2,9,4,-75.586998,39.682299
2020,131159,American University,Washington,DC,20016,2,9,4,-77.088875,38.936005
2020,131283,The Catholic University of America,Washington,DC,20064,2,9,3,-76.997909,38.933651
2020,131399,University of the District of Columbia,Washington,DC,20008,1,9,2,-77.066247,38.943819
2020,131405,Pontifical Faculty of the Immaculate Conception at the Dominican House of Studies,Washington,DC,20017,2,7,1,-76.998724,38.931652
2020,131450,Gallaudet University,Washington,DC,20002,2,9,2,-76.993675,38.907371
2020,131469,George Washington University,Washington,DC,20052,2,9,5,-77.048363,38.89923
2020,131496,Georgetown University,Washington,DC,20057,2,9,4,-77.073463,38.908809
2020,131520,Howard University,Washington,DC,20059,2,9,4,-77.018966,38.922392
2020,131803,Strayer University-District of Columbia,Washington,DC,20005,3,7,1,-77.034133,38.904881
2020,131830,National Conservatory of Dramatic Arts,Washington,DC,20007,2,2,1,-77.065095,38.910024
2020,131876,Trinity Washington University,Washington,DC,20017,2,7,2,-77.004261,38.927398
2020,131973,Wesley Theological Seminary,Washington,DC,20016,2,9,1,-77.08996,38.939606
2020,132374,Atlantic Technical College,Coconut Creek,FL,33063,1,4,2,-80.192271,26.24278
2020,132408,The Baptist College of Florida,Graceville,FL,32440,2,7,1,-85.503931,30.962708
2020,132471,Barry University,Miami,FL,33161,2,9,3,-80.198925,25.878908
2020,132602,Bethune-Cookman University,Daytona Beach,FL,32114,2,7,2,-81.032946,29.207195
2020,132657,Lynn University,Boca Raton,FL,33431,2,9,2,-80.122806,26.385985
2020,132675,North Florida Technical College,Starke,FL,32091,1,2,1,-82.117224,29.952308
2020,132693,Eastern Florida State College,Cocoa,FL,32922,1,5,4,-80.756474,28.38361
2020,132709,Broward College,Fort Lauderdale,FL,33301,1,5,5,-80.14183,26.119422
2020,132842,Albizu University-Miami,Miami,FL,33172,2,9,1,-80.356315,25.794178
2020,132851,College of Central Florida,Ocala,FL,34474,1,5,3,-82.175692,29.166079
2020,132879,Johnson University Florida,Kissimmee,FL,34744,2,7,1,-81.363053,28.302547
2020,132903,University of Central Florida,Orlando,FL,32816,1,9,5,-81.200889,28.602159
2020,132976,Charlotte Technical College,Port Charlotte,FL,33948,1,2,1,-82.147238,27.005558
2020,133021,Chipola College,Marianna,FL,32446,1,5,2,-85.23139,30.789228
2020,133155,Lorenzo Walker Technical College,Naples,FL,34104,1,4,1,-81.763568,26.141141
2020,133386,Daytona State College,Daytona Beach,FL,32114,1,5,4,-81.049685,29.203275
2020,133465,South University-West Palm Beach,Royal Palm Beach,FL,33411,3,9,1,-80.200219,26.69215
2020,133492,Eckerd College,Saint Petersburg,FL,33711,2,5,2,-82.687043,27.715798
2020,133508,Florida SouthWestern State College,Fort Myers,FL,33919,1,5,4,-81.887102,26.552403
2020,133526,Edward Waters College,Jacksonville,FL,32209,2,5,2,-81.684879,30.34479
2020,133553,Embry-Riddle Aeronautical University-Daytona Beach,Daytona Beach,FL,32114,2,9,3,-81.048367,29.189903
2020,133650,Florida Agricultural and Mechanical University,Tallahassee,FL,32307,1,9,3,-84.290226,30.428504
2020,133669,Florida Atlantic University,Boca Raton,FL,33431,1,9,5,-80.102978,26.372421
2020,133702,Florida State College at Jacksonville,Jacksonville,FL,32202,1,5,5,-81.659901,30.334918
2020,133711,Flagler College,Saint Augustine,FL,32084,2,7,2,-81.314887,29.892733
2020,133809,Florida College,Temple Terrace,FL,33617,2,5,1,-82.383289,28.034936
2020,133845,Concorde Career Institute-Jacksonville,Jacksonville,FL,32256,3,3,1,-81.581748,30.23886
2020,133854,Concorde Career Institute-Miramar,Miramar,FL,33025,3,3,1,-80.291516,25.977088
2020,133863,Concorde Career Institute-Tampa,Tampa,FL,33607,3,3,1,-82.514341,27.959148
2020,133872,AdventHealth University,Orlando,FL,32803,2,9,2,-81.367687,28.576142
2020,133881,Florida Institute of Technology,Melbourne,FL,32901,2,9,3,-80.622893,28.065815
2020,133942,Florida Institute of Ultrasound Inc,Pensacola,FL,32514,3,4,1,-87.220895,30.524582
2020,133951,Florida International University,Miami,FL,33199,1,9,5,-80.373928,25.75732
2020,133960,The College of the Florida Keys,Key West,FL,33040,1,5,1,-81.74446,24.582748
2020,133979,Florida Memorial University,Miami Gardens,FL,33054,2,7,1,-80.270753,25.918278
2020,133997,Florida Career College-Miami,Miami,FL,33174,3,3,1,-80.36778,25.756567
2020,134024,Florida School of Massage,Gainesville,FL,32608,3,1,1,-82.338273,29.593428
2020,134079,Florida Southern College,Lakeland,FL,33801,2,9,2,-81.948203,28.032443
2020,134097,Florida State University,Tallahassee,FL,32306,1,9,5,-84.291921,30.440756
2020,134112,Florida Technical College,Orlando,FL,32826,3,5,-2,-81.196503,28.573275
2020,134130,University of Florida,Gainesville,FL,32611,1,9,5,-82.347911,29.64629
2020,134228,Fort Pierce Beauty Academy,Fort Pierce,FL,34982,3,2,1,-80.325377,27.411962
2020,134237,Full Sail University,Winter Park,FL,32792,3,7,5,-81.301286,28.596546
2020,134291,George Stone Technical College,Pensacola,FL,32526,1,4,1,-87.290659,30.487547
2020,134307,George T Baker Aviation Technical College,Miami,FL,33142,1,4,1,-80.263591,25.804092
2020,134343,Gulf Coast State College,Panama City,FL,32401,1,5,2,-85.727918,30.185542
2020,134422,Key College,Fort Lauderdale,FL,33304,3,5,1,-80.114462,26.13887
2020,134495,Hillsborough Community College,Tampa,FL,33606,1,4,4,-82.456253,27.934888
2020,134510,Hobe Sound Bible College,Hobe Sound,FL,33455,2,7,1,-80.13184,27.066304
2020,134529,Hollywood Institute of Beauty Careers,Hollywood,FL,33023,3,2,1,-80.209125,26.007139
2020,134574,Cortiva Institute-Florida,St. Petersburg,FL,33713,3,1,1,-82.680031,27.793547
2020,134608,Indian River State College,Fort Pierce,FL,34981,1,5,4,-80.358682,27.42416
2020,134714,International Academy,South Daytona,FL,32119,3,2,1,-80.997811,29.162159
2020,134811,AI Miami International University of Art and Design,Miami,FL,33132,3,7,1,-80.18839,25.790008
2020,134945,Jacksonville University,Jacksonville,FL,32211,2,9,2,-81.60458,30.353227
2020,135081,Keiser University-Ft Lauderdale,Fort Lauderdale,FL,33309,2,9,5,-80.163959,26.185869
2020,135142,La Belle Beauty School,Hialeah,FL,33012,3,2,1,-80.312711,25.86695
2020,135160,Florida Gateway College,Lake City,FL,32025,1,5,2,-82.5679,30.175298
2020,135179,Lake Technical College,Eustis,FL,32726,1,2,1,-81.690874,28.833446
2020,135188,Lake-Sumter State College,Leesburg,FL,34788,1,5,2,-81.797193,28.828649
2020,135267,Fort Myers Technical College,Fort Myers,FL,33916,1,4,1,-81.836596,26.647517
2020,135276,Lively Technical College,Tallahassee,FL,32304,1,2,2,-84.339057,30.448534
2020,135294,Lindsey Hopkins Technical College,Miami,FL,33127,1,4,1,-80.208154,25.794676
2020,135337,Loraines Academy & Spa,Saint Petersburg,FL,33710,3,2,1,-82.713964,27.783077
2020,135364,Luther Rice College & Seminary,Lithonia,GA,30038,2,9,1,-84.123179,33.698126
2020,135391,State College of Florida-Manatee-Sarasota,Bradenton,FL,34207,1,5,3,-82.590887,27.43804
2020,135407,Manatee Technical College,Bradenton,FL,34203,1,4,1,-82.481088,27.447894
2020,135522,Traviss Technical College,Lakeland,FL,33803,1,2,1,-81.892381,27.995822
2020,135559,Merryfield School of Pet Grooming,Oakland Park,FL,33334,3,1,1,-80.129991,26.19044
2020,135610,Trinity International University-Florida,Miami,FL,33186,2,7,1,-80.417646,25.68307
2020,135647,Miami Lakes Educational Center and Technical College,Miami Lakes,FL,33014,1,4,1,-80.29513,25.916128
2020,135717,Miami Dade College,Miami,FL,33132,1,5,5,-80.190856,25.777717
2020,135726,University of Miami,Coral Gables,FL,33146,2,9,4,-80.278662,25.72126
2020,135735,Orange Technical College-Mid Florida Campus,Orlando,FL,32809,1,4,2,-81.415996,28.471695
2020,136109,Paul Mitchell the School-Jacksonville,Jacksonville,FL,32246,3,2,1,-81.527515,30.259433
2020,136145,North Florida College,Madison,FL,32340,1,5,2,-83.420732,30.473841
2020,136172,University of North Florida,Jacksonville,FL,32224,1,9,4,-81.509144,30.27194
2020,136215,Nova Southeastern University,Fort Lauderdale,FL,33314,2,9,5,-80.24248,26.079337
2020,136233,Northwest Florida State College,Niceville,FL,32578,1,5,3,-86.47456,30.540017
2020,136303,Orange Technical College-Orlando Campus,Orlando,FL,32801,1,4,1,-81.383783,28.550422
2020,136330,Palm Beach Atlantic University,West Palm Beach,FL,33401,2,9,2,-80.05247,26.7044
2020,136358,Palm Beach State College,Lake Worth,FL,33461,1,5,5,-80.08653,26.61256
2020,136400,Pasco-Hernando State College,New Port Richey,FL,34654,1,5,3,-82.646727,28.2751
2020,136473,Pensacola State College,Pensacola,FL,32504,1,5,3,-87.200265,30.479267
2020,136491,Pinellas Technical College-Clearwater,Clearwater,FL,33760,1,2,1,-82.719064,27.911922
2020,136516,Polk State College,Winter Haven,FL,33881,1,5,3,-81.711873,28.032411
2020,136659,Radford M Locklin Technical College,Milton,FL,32570,1,4,1,-87.09971,30.648077
2020,136701,Saint Vincent de Paul Regional Seminary,Boynton Beach,FL,33436,2,7,1,-80.125185,26.516538
2020,136765,Ridge Technical College,Winter Haven,FL,33881,1,2,1,-81.654463,28.076632
2020,136774,Ringling College of Art and Design,Sarasota,FL,34234,2,5,2,-82.547803,27.360931
2020,136826,Robert Morgan Educational Center and Technical College,Miami,FL,33177,1,4,1,-80.390054,25.599247
2020,136950,Rollins College,Winter Park,FL,32789,2,9,2,-81.349239,28.592787
2020,137023,First Coast Technical College,Saint Augustine,FL,32084,1,2,1,-81.345829,29.924377
2020,137032,Saint Leo University,Saint Leo,FL,33574,2,9,3,-82.257801,28.336776
2020,137078,St Petersburg College,Clearwater,FL,33760,1,5,5,-82.717331,27.90242
2020,137087,Pinellas Technical College-St. Petersburg,Saint Petersburg,FL,33711,1,4,1,-82.681534,27.761183
2020,137096,Santa Fe College,Gainesville,FL,32606,1,5,4,-82.433143,29.681037
2020,137120,Suncoast Technical College,Sarasota,FL,34233,1,4,2,-82.500827,27.285486
2020,137209,Seminole State College of Florida,Sanford,FL,32773,1,5,4,-81.308003,28.745482
2020,137245,Sheridan Technical College,Hollywood,FL,33021,1,4,2,-80.198024,26.031736
2020,137272,St. John Vianney College Seminary,Miami,FL,33165,2,6,1,-80.337411,25.742579
2020,137281,Saint Johns River State College,Palatka,FL,32177,1,5,3,-81.681387,29.647516
2020,137315,South Florida State College,Avon Park,FL,33825,1,5,2,-81.508667,27.56974
2020,137351,University of South Florida,Tampa,FL,33620,1,9,5,-82.413232,28.061458
2020,137476,St. Thomas University,Miami Gardens,FL,33054,2,9,3,-80.253273,25.922071
2020,137546,Stetson University,DeLand,FL,32723,2,9,2,-81.300746,29.035475
2020,137564,Southeastern University,Lakeland,FL,33801,2,9,3,-81.918382,28.029733
2020,137591,Bene's Career Academy,New Port Richey,FL,34652,3,2,1,-82.728584,28.259612
2020,137713,Riveroak Technical College,Live Oak,FL,32064,1,2,1,-82.992512,30.281999
2020,137759,Tallahassee Community College,Tallahassee,FL,32304,1,5,4,-84.339,30.443866
2020,137777,Talmudic College of Florida,Miami Beach,FL,33140,2,7,1,-80.136293,25.811996
2020,137801,Altierus Career College-Tampa,Tampa,FL,33614,2,3,1,-82.497616,27.996582
2020,137847,The University of Tampa,Tampa,FL,33606,2,9,3,-82.46483,27.948455
2020,137856,Big Bend Technical College,Perry,FL,32348,1,2,1,-83.565783,30.077954
2020,137865,Tom P Haney Technical Center,Panama City,FL,32405,1,2,1,-85.646585,30.203363
2020,137953,Trinity Baptist College,Jacksonville,FL,32221,2,7,1,-81.79626,30.311171
2020,137962,Trinity College of Florida,Trinity,FL,34655,2,5,1,-82.678318,28.194732
2020,138187,Valencia College,Orlando,FL,32835,1,5,5,-81.471466,28.520898
2020,138275,Warner University,Lake Wales,FL,33859,2,7,1,-81.599972,27.825751
2020,138284,Florida Panhandle Technical College,Chipley,FL,32428,1,2,1,-85.553345,30.77449
2020,138293,Webber International University,Babson Park,FL,33827,2,7,1,-81.532315,27.838778
2020,138309,Rasmussen University-Florida,Ocala,FL,34474,3,7,3,-82.197343,29.140099
2020,138354,The University of West Florida,Pensacola,FL,32514,1,9,4,-87.218511,30.549076
2020,138372,Orange Technical College-Westside Campus,Winter Garden,FL,34787,1,4,2,-81.571532,28.559574
2020,138479,William T McFatter Technical College,Davie,FL,33317,1,4,1,-80.232201,26.085022
2020,138488,Orange Technical College-Winter Park Campus,Winter Park,FL,32789,1,2,2,-81.36174,28.604386
2020,138497,Withlacoochee Technical College,Inverness,FL,34450,1,4,1,-82.345563,28.834861
2020,138558,Abraham Baldwin Agricultural College,Tifton,GA,31793,1,5,2,-83.528281,31.481889
2020,138600,Agnes Scott College,Decatur,GA,30030,2,7,2,-84.295459,33.769268
2020,138655,Interactive College of Technology-Chamblee,Chamblee,GA,30341,3,3,1,-84.303159,33.887956
2020,138664,Interactive College of Technology-Morrow,Morrow,GA,30260,3,3,1,-84.336098,33.57233
2020,138682,Albany Technical College,Albany,GA,31701,1,4,2,-84.174284,31.55434
2020,138716,Albany State University,Albany,GA,31705,1,8,3,-84.141825,31.56928
2020,138761,Andrew College,Cuthbert,GA,39840,2,5,1,-84.795021,31.772321
2020,138813,The Art Institute of Atlanta,Atlanta,GA,30328,3,5,1,-84.355252,33.936024
2020,138822,Georgia Career Institute,Conyers,GA,30094,3,2,1,-84.018321,33.64336
2020,138840,Atlanta Technical College,Atlanta,GA,30310,1,4,2,-84.404995,33.712009
2020,138868,Point University,West Point,GA,31833,2,7,2,-85.184931,32.87912
2020,138901,Atlanta Metropolitan State College,Atlanta,GA,30310,1,5,2,-84.404659,33.70893
2020,138929,Atlanta's John Marshall Law School,Atlanta,GA,30309,3,9,1,-84.387898,33.793394
2020,138938,Atlanta School of Massage,Atlanta,GA,30338,3,2,1,-84.311332,33.922131
2020,138947,Clark Atlanta University,Atlanta,GA,30314,2,9,2,-84.412584,33.747628
2020,138956,Augusta Technical College,Augusta,GA,30906,1,4,2,-82.048439,33.418992
2020,139144,Berry College,Mount Berry,GA,30149,2,7,2,-85.189202,34.290414
2020,139153,Beulah Heights University,Atlanta,GA,30316,2,9,1,-84.35768,33.736993
2020,139199,Brenau University,Gainesville,GA,30501,2,9,2,-83.821513,34.303117
2020,139205,Brewton-Parker College,Mount Vernon,GA,30445,2,5,1,-82.586136,32.185718
2020,139214,Brown College of Court Reporting,Atlanta,GA,30309,3,4,1,-84.389979,33.784769
2020,139250,College of Coastal Georgia,Brunswick,GA,31520,1,5,2,-81.485973,31.182745
2020,139278,West Georgia Technical College,Waco,GA,30182,1,4,3,-85.183666,33.691657
2020,139311,Clayton  State University,Morrow,GA,30260,1,8,3,-84.328174,33.594079
2020,139348,Columbia Theological Seminary,Decatur,GA,30030,2,9,1,-84.281695,33.764292
2020,139357,Columbus Technical College,Columbus,GA,31904,1,4,2,-84.978551,32.508076
2020,139366,Columbus State University,Columbus,GA,31907,1,9,3,-84.94106,32.50096
2020,139384,Georgia Northwestern Technical College,Rome,GA,30161,1,4,3,-85.171361,34.224673
2020,139393,Covenant College,Lookout Mountain,GA,30750,2,7,1,-85.375066,34.965161
2020,139463,Dalton State College,Dalton,GA,30720,1,5,2,-85.002775,34.774221
2020,139506,Pro Way Hair School,Stone Mountain,GA,30083,3,2,1,-84.205183,33.801802
2020,139579,South University-Savannah,Savannah,GA,31406,3,9,1,-81.105435,31.999571
2020,139621,East Georgia State College,Swainsboro,GA,30401,1,5,2,-82.309021,32.594944
2020,139630,Emmanuel College,Franklin Springs,GA,30639,2,5,1,-83.14822,34.283641
2020,139658,Emory University,Atlanta,GA,30322,2,9,4,-84.325512,33.790183
2020,139700,Georgia Highlands College,Rome,GA,30161,1,5,3,-85.207356,34.169791
2020,139719,Fort Valley State University,Fort Valley,GA,31030,1,8,2,-83.89537,32.537595
2020,139746,Grady Health System Professional Schools,Atlanta,GA,30303,1,4,1,-84.381561,33.751852
2020,139755,Georgia Institute of Technology-Main Campus,Atlanta,GA,30332,1,9,5,-84.394832,33.77242
2020,139764,Georgia Southwestern State University,Americus,GA,31709,1,8,2,-84.217738,32.054662
2020,139861,Georgia College & State University,Milledgeville,GA,31061,1,9,3,-83.231962,33.082787
2020,139931,Georgia Southern University,Statesboro,GA,30460,1,9,5,-81.784045,32.426153
2020,139940,Georgia State University,Atlanta,GA,30303,1,9,5,-84.38667,33.7527
2020,139959,University of Georgia,Athens,GA,30602,1,9,5,-83.374039,33.956262
2020,139968,Gordon State College,Barnesville,GA,30204,1,5,2,-84.154508,33.04571
2020,139986,Southern Crescent Technical College,Griffin,GA,30223,1,4,3,-84.291662,33.255438
2020,139995,Gupton Jones College of Funeral Service,Decatur,GA,30035,2,3,1,-84.179775,33.710709
2020,140003,Gwinnett College-Lilburn,Lilburn,GA,30047,3,3,1,-84.121874,33.901271
2020,140012,Gwinnett Technical College,Lawrenceville,GA,30043,1,4,3,-84.066224,33.962763
2020,140146,Interdenominational Theological Center,Atlanta,GA,30314,2,9,1,-84.409207,33.752338
2020,140234,LaGrange College,Lagrange,GA,30240,2,7,1,-85.043113,33.038564
2020,140243,Lanier Technical College,Gainesville,GA,30507,1,4,3,-83.778107,34.330323
2020,140252,Life University,Marietta,GA,30060,2,9,2,-84.514729,33.932781
2020,140331,Chattahoochee Technical College,Marietta,GA,30060,1,4,3,-84.553722,33.929092
2020,140340,Herzing University-Atlanta,Atlanta,GA,30303,2,8,1,-84.387251,33.754218
2020,140447,Mercer University,Macon,GA,31207,2,9,3,-83.648295,32.831787
2020,140553,Morehouse College,Atlanta,GA,30314,2,5,2,-84.414917,33.745982
2020,140562,Morehouse School of Medicine,Atlanta,GA,30310,2,9,1,-84.41186,33.742888
2020,140678,North Georgia Technical College,Clarkesville,GA,30523,1,4,2,-83.530118,34.639721
2020,140696,Oglethorpe University,Atlanta,GA,30319,2,5,2,-84.333687,33.875441
2020,140720,Paine College,Augusta,GA,30901,2,5,1,-81.993225,33.469545
2020,140818,Piedmont University,Demorest,GA,30535,2,9,2,-83.542126,34.566042
2020,140827,Miami Ad School-Atlanta,Atlanta,GA,30309,3,4,1,-84.396182,33.812116
2020,140872,Reinhardt University,Waleska,GA,30183,2,7,2,-84.554264,34.319756
2020,140942,Savannah Technical College,Savannah,GA,31405,1,4,2,-81.114753,32.023211
2020,140951,Savannah College of Art and Design,Savannah,GA,31402,2,7,4,-81.093849,32.072963
2020,140960,Savannah State University,Savannah,GA,31404,1,7,2,-81.063377,32.024781
2020,140988,Shorter University,Rome,GA,30165,2,7,2,-85.196529,34.257543
2020,141006,South Georgia Technical College,Americus,GA,31709,1,4,2,-84.188321,32.116663
2020,141015,The Creative Circus,Atlanta,GA,30324,3,4,1,-84.361989,33.813156
2020,141060,Spelman College,Atlanta,GA,30314,2,5,2,-84.411527,33.745279
2020,141167,Thomas University,Thomasville,GA,31792,2,8,2,-83.963587,30.815576
2020,141185,Toccoa Falls College,Toccoa Falls,GA,30598,2,7,2,-83.357617,34.593414
2020,141237,Truett McConnell University,Cleveland,GA,30528,2,7,2,-83.748911,34.596306
2020,141255,Wiregrass Georgia Technical College,Valdosta,GA,31602,1,4,2,-83.35381,30.889221
2020,141264,Valdosta State University,Valdosta,GA,31698,1,9,4,-83.289282,30.847402
2020,141325,Wesleyan College,Macon,GA,31210,2,7,1,-83.715417,32.876037
2020,141334,University of West Georgia,Carrollton,GA,30118,1,9,4,-85.097762,33.573621
2020,141361,Young Harris College,Young Harris,GA,30582,2,7,2,-83.84587,34.933523
2020,141486,Chaminade University of Honolulu,Honolulu,HI,96816,2,9,2,-157.807851,21.28995
2020,141565,University of Hawaii at Hilo,Hilo,HI,96720,1,9,2,-155.080847,19.701189
2020,141574,University of Hawaii at Manoa,Honolulu,HI,96822,1,9,4,-157.818979,21.298598
2020,141608,Hawaii Institute of Hair Design,Honolulu,HI,96817,3,2,1,-157.861609,21.31146
2020,141644,Hawaii Pacific University,Honolulu,HI,96813,2,9,2,-157.859645,21.310306
2020,141680,Honolulu Community College,Honolulu,HI,96817,1,4,2,-157.87,21.321785
2020,141796,Kapiolani Community College,Honolulu,HI,96816,1,4,3,-157.800213,21.27148
2020,141802,Kauai Community College,Lihue,HI,96766,1,4,2,-159.395883,21.968887
2020,141811,Leeward Community College,Pearl City,HI,96782,1,4,3,-157.983771,21.39267
2020,141839,University of Hawaii Maui College,Kahului,HI,96732,1,5,2,-156.477252,20.88956
2020,141963,University of Hawaii System Office,Honolulu,HI,96822,1,9,-2,-157.819849,21.297263
2020,141981,University of Hawaii-West Oahu,Kapolei,HI,96707,1,5,2,-158.056403,21.35531
2020,141990,Windward Community College,Kaneohe,HI,96744,1,4,2,-157.813307,21.407051
2020,142054,Carrington College-Boise,Boise,ID,83704,3,3,1,-116.260675,43.615295
2020,142090,Boise Bible College,Boise,ID,83714,2,5,1,-116.291321,43.658651
2020,142115,Boise State University,Boise,ID,83725,1,9,5,-116.203301,43.604284
2020,142179,College of Eastern Idaho,Idaho Falls,ID,83404,1,3,2,-111.985519,43.486041
2020,142276,Idaho State University,Pocatello,ID,83209,1,9,4,-112.432312,42.863832
2020,142285,University of Idaho,Moscow,ID,83844,1,9,4,-117.014167,46.727406
2020,142294,The College of Idaho,Caldwell,ID,83605,2,7,2,-116.677992,43.652284
2020,142328,Lewis-Clark State College,Lewiston,ID,83501,1,5,2,-117.024875,46.412199
2020,142407,Aveda Institute-Twin Falls,Twin Falls,ID,83301,3,2,1,-114.461545,42.593567
2020,142416,Mr Leon's School of Hair Design-Moscow,Moscow,ID,83843,3,2,1,-117.001162,46.729532
2020,142443,North Idaho College,Coeur d'Alene,ID,83814,1,4,2,-116.798905,47.67569
2020,142461,Northwest Nazarene University,Nampa,ID,83686,2,9,2,-116.565783,43.562411
2020,142489,Elevate Salon Institute-Chubbuck,Chubbuck,ID,83202,3,4,1,-112.464554,42.919964
2020,142522,Brigham Young University-Idaho,Rexburg,ID,83460,2,5,5,-111.782431,43.818408
2020,142559,College of Southern Idaho,Twin Falls,ID,83301,1,5,3,-114.473901,42.579837
2020,142832,Adler University,Chicago,IL,60602,2,9,2,-87.629156,41.882414
2020,142887,American Academy of Art,Chicago,IL,60604,2,5,1,-87.624788,41.87742
2020,142957,American Islamic College,Chicago,IL,60613,2,7,1,-87.646898,41.954969
2020,143048,School of the Art Institute of Chicago,Chicago,IL,60603,2,7,2,-87.625758,41.88105
2020,143084,Augustana College,Rock Island,IL,61201,2,7,2,-90.55057,41.502365
2020,143118,Aurora University,Aurora,IL,60506,2,9,3,-88.349023,41.753631
2020,143181,Tricoci University of Beauty Culture-Urbana,Urbana,IL,61801,3,2,1,-88.205988,40.117729
2020,143215,Southwestern Illinois College,Belleville,IL,62221,1,3,3,-89.924466,38.516406
2020,143233,Bethany Theological Seminary,Richmond,IN,47374,2,7,1,-84.910689,39.826244
2020,143279,Black Hawk College,Moline,IL,61265,1,3,2,-90.447799,41.477283
2020,143288,Blackburn College,Carlinville,IL,62626,2,5,1,-89.870241,39.287896
2020,143297,Blessing Rieman College of Nursing and Health Sciences,Quincy,IL,62305,2,7,1,-91.357497,39.949641
2020,143303,Blessing Hospital School of Radiologic Technology,Quincy,IL,62305,2,4,1,-91.391542,39.935084
2020,143358,Bradley University,Peoria,IL,61625,2,9,3,-89.616786,40.696896
2020,143376,Paul Mitchell the School-Bradley,Bourbonnais,IL,60914,3,2,1,-87.847099,41.172891
2020,143464,Cameo Beauty Academy,Oak Lawn,IL,60453,3,2,1,-87.740894,41.716051
2020,143473,Cannella School of Hair Design-Villa Park,Villa Park,IL,60181,3,2,1,-87.994628,41.90417
2020,143482,Cannella School of Hair Design-Chicago,Chicago,IL,60617,3,2,1,-87.551622,41.731381
2020,143491,Cannella School of Hair Design-Chicago,Chicago,IL,60632,3,2,1,-87.701198,41.815763
2020,143543,Empire Beauty School-Hanover Park,Hanover Park,IL,60133,3,2,1,-88.135725,41.977516
2020,143552,Capri Beauty College,Oak Forest,IL,60452,3,2,1,-87.771567,41.603863
2020,143613,Carl Sandburg College,Galesburg,IL,61401,1,3,2,-90.408203,40.98128
2020,143659,Catholic Theological Union at Chicago,Chicago,IL,60615,2,9,1,-87.585989,41.797895
2020,143853,Midwestern University-Downers Grove,Downers Grove,IL,60515,2,9,2,-87.998342,41.828115
2020,143978,The Chicago School of Professional Psychology at Chicago,Chicago,IL,60654,2,9,2,-87.63379,41.888293
2020,144005,Chicago State University,Chicago,IL,60628,1,9,2,-87.609384,41.718446
2020,144014,Chicago Theological Seminary,Chicago,IL,60637,2,9,1,-87.591178,41.785701
2020,144050,University of Chicago,Chicago,IL,60637,2,9,4,-87.599539,41.787994
2020,144157,City Colleges of Chicago-Kennedy-King College,Chicago,IL,60621,1,3,2,-87.643425,41.780253
2020,144166,City Colleges of Chicago-Malcolm X College,Chicago,IL,60612,1,3,3,-87.675321,41.878092
2020,144175,City Colleges of Chicago-Olive-Harvey College,Chicago,IL,60628,1,3,2,-87.589249,41.709997
2020,144184,City Colleges of Chicago-Harry S Truman College,Chicago,IL,60640,1,3,3,-87.659107,41.964502
2020,144193,City Colleges of Chicago-Richard J Daley College,Chicago,IL,60652,1,3,2,-87.723981,41.755955
2020,144209,City Colleges of Chicago-Harold Washington College,Chicago,IL,60601,1,3,3,-87.626596,41.886067
2020,144218,City Colleges of Chicago-Wilbur Wright College,Chicago,IL,60634,1,3,3,-87.787868,41.958774
2020,144281,Columbia College Chicago,Chicago,IL,60605,2,7,3,-87.624667,41.874261
2020,144351,Concordia University-Chicago,River Forest,IL,60305,2,9,3,-87.809482,41.898696
2020,144485,Coyne College,Chicago,IL,60602,3,3,1,-87.627413,41.882558
2020,144500,City Colleges of Chicago-District Office,Chicago,IL,60601,1,3,-2,-87.62671,41.885452
2020,144564,Danville Area Community College,Danville,IL,61832,1,3,2,-87.587884,40.127539
2020,144573,Tricoci University of Beauty Culture-Danville,Danville,IL,61832,3,2,1,-87.636314,40.075809
2020,144740,DePaul University,Chicago,IL,60604,2,9,5,-87.62724,41.877618
2020,144777,DeVry University-Administrative Office,Naperville,IL,60563,3,7,-2,-88.126334,41.799874
2020,144795,Cosmetology & Spa Academy,Crystal Lake,IL,60014,3,2,1,-88.294087,42.24918
2020,144865,College of DuPage,Glen Ellyn,IL,60137,1,3,5,-88.071635,41.841577
2020,144883,East-West University,Chicago,IL,60605,2,5,1,-87.624793,41.871309
2020,144892,Eastern Illinois University,Charleston,IL,61920,1,8,3,-88.175658,39.479843
2020,144944,Elgin Community College,Elgin,IL,60123,1,4,3,-88.32194,42.018066
2020,144962,Elmhurst University,Elmhurst,IL,60126,2,7,2,-87.945369,41.897164
2020,144971,Eureka College,Eureka,IL,61530,2,5,1,-89.269624,40.71482
2020,145099,"First Institute of Travel, Inc.",Crystal Lake,IL,60014,3,1,1,-88.339468,42.21926
2020,145239,Fox College,Bedford Park,IL,60638,3,3,1,-87.744728,41.771488
2020,145275,Garrett-Evangelical Theological Seminary,Evanston,IL,60201,2,9,1,-87.675497,42.056221
2020,145309,Gem City College,Quincy,IL,62301,3,2,1,-91.404218,39.926394
2020,145336,Governors State University,University Park,IL,60484,1,9,2,-87.716441,41.449103
2020,145354,Graham Hospital School of Nursing,Canton,IL,61520,2,4,1,-90.038776,40.552962
2020,145372,Greenville University,Greenville,IL,62246,2,7,1,-89.40824,38.894162
2020,145406,G Skin & Beauty Institute,Schaumburg,IL,60195,3,2,1,-88.083218,42.061983
2020,145424,Hair Professionals Career College,Sycamore,IL,60178,3,2,1,-88.718145,41.962221
2020,145433,Hair Professionals School of Cosmetology,Oswego,IL,60543,3,2,1,-88.364727,41.682591
2020,145497,Hebrew Theological College,Skokie,IL,60077,2,5,1,-87.760874,42.010103
2020,145521,Highland Community College,Freeport,IL,61032,1,3,2,-89.67342,42.283344
2020,145558,Rosalind Franklin University of Medicine and Science,North Chicago,IL,60064,2,9,2,-87.859632,42.300069
2020,145600,University of Illinois Chicago,Chicago,IL,60607,1,9,5,-87.650503,41.871837
2020,145619,Benedictine University,Lisle,IL,60532,2,9,2,-88.097307,41.777569
2020,145628,Illinois College of Optometry,Chicago,IL,60616,2,9,1,-87.623016,41.835447
2020,145637,University of Illinois Urbana-Champaign,Champaign,IL,61820,1,9,5,-88.229114,40.104718
2020,145646,Illinois Wesleyan University,Bloomington,IL,61702,2,5,2,-88.992014,40.489901
2020,145682,Illinois Central College,East Peoria,IL,61635,1,3,3,-89.52485,40.707235
2020,145691,Illinois College,Jacksonville,IL,62650,2,7,2,-90.246171,39.7313
2020,145707,Olney Central College,Olney,IL,62450,1,3,1,-88.099589,38.735913
2020,145725,Illinois Institute of Technology,Chicago,IL,60616,2,9,3,-87.627321,41.8313
2020,145813,Illinois State University,Normal,IL,61790,1,9,5,-88.990058,40.509403
2020,145831,Illinois Valley Community College,Oglesby,IL,61348,1,4,2,-89.100887,41.30744
2020,145886,Institute for Clinical Social Work,Chicago,IL,60640,2,9,1,-87.662806,41.972414
2020,146205,John A Logan College,Carterville,IL,62918,1,3,2,-89.09021,37.747453
2020,146241,The John Marshall Law School,Chicago,IL,60604,2,9,-2,-87.628567,41.877966
2020,146278,John Wood Community College,Quincy,IL,62305,1,3,2,-91.335828,39.913741
2020,146296,Joliet Junior College,Joliet,IL,60431,1,3,4,-88.180985,41.500535
2020,146339,Judson University,Elgin,IL,60123,2,9,2,-88.291336,42.061754
2020,146348,Kankakee Community College,Kankakee,IL,60901,1,3,2,-87.851047,41.098178
2020,146366,Kaskaskia College,Centralia,IL,62801,1,3,2,-89.191974,38.562112
2020,146418,Kishwaukee College,Malta,IL,60150,1,3,2,-88.880524,41.938234
2020,146427,Knox College,Galesburg,IL,61401,2,5,2,-90.373165,40.943064
2020,146454,Educators of Beauty College of Cosmetology-Peru,PERU,IL,61354,3,2,1,-89.118454,41.354338
2020,146472,College of Lake County,Grayslake,IL,60030,1,3,4,-88.012291,42.354164
2020,146481,Lake Forest College,Lake Forest,IL,60045,2,7,2,-87.827454,42.249574
2020,146490,Lake Forest Graduate School of Management,Lake Forest,IL,60045,2,7,1,-87.893204,42.243432
2020,146506,Lake Land College,Mattoon,IL,61938,1,3,2,-88.380835,39.416969
2020,146533,Lakeview College of Nursing,Danville,IL,61832,2,5,1,-87.644379,40.13855
2020,146603,Lewis and Clark Community College,Godfrey,IL,62035,1,3,2,-90.194405,38.951624
2020,146612,Lewis University,Romeoville,IL,60446,2,9,3,-88.079032,41.605432
2020,146667,Lincoln Christian University,Lincoln,IL,62656,2,9,1,-89.346721,40.148924
2020,146676,Lincoln College,Lincoln,IL,62656,2,7,1,-89.36153,40.155442
2020,146685,Lincoln Land Community College,Springfield,IL,62794,1,3,2,-89.611249,39.721211
2020,146700,Lincoln College of Technology-Melrose Park,Melrose Park,IL,60160,3,4,1,-87.832162,41.905577
2020,146719,Loyola University Chicago,Chicago,IL,60660,2,9,4,-87.656872,42.000765
2020,146728,Lutheran School of Theology at Chicago,Chicago,IL,60615,2,9,1,-87.598978,41.79563
2020,146755,Trinity College of Nursing & Health Sciences,Rock Island,IL,61201,2,7,1,-90.568862,41.484924
2020,146807,Steven Papageorge Hair Academy,Chicago,IL,60657,3,2,1,-87.657152,41.939685
2020,146816,MacCormac College,Chicago,IL,60602,2,3,1,-87.626657,41.881898
2020,146825,MacMurray College,Jacksonville,IL,62650,2,5,-2,-90.223986,39.730918
2020,146977,McCormick Theological Seminary,Chicago,IL,60615,2,9,1,-87.598511,41.79597
2020,147004,McHenry County College,Crystal Lake,IL,60012,1,3,3,-88.368956,42.259111
2020,147013,McKendree University,Lebanon,IL,62254,2,9,2,-89.816822,38.608154
2020,147031,Meadville Lombard Theological School,Chicago,IL,60605,2,7,1,-87.624619,41.874027
2020,147129,Methodist College,Peoria,IL,61615,2,8,1,-89.682864,40.7804
2020,147244,Millikin University,Decatur,IL,62522,2,9,2,-88.976298,39.842612
2020,147341,Monmouth College,Monmouth,IL,61462,2,5,1,-90.63731,40.914824
2020,147369,Moody Bible Institute,Chicago,IL,60610,2,7,2,-87.633459,41.897822
2020,147378,Moraine Valley Community College,Palos Hills,IL,60465,1,3,4,-87.836915,41.694613
2020,147396,Morrison Institute of Technology,Morrison,IL,61270,2,3,1,-89.965963,41.7971
2020,147411,Morton College,Cicero,IL,60804,1,3,2,-87.762306,41.824303
2020,147439,Mr John's School of Cosmetology Esthetics & Nails-Decatur,Decatur,IL,62521,3,4,-2,-88.933574,39.846081
2020,147536,National Louis University,Chicago,IL,60603,2,9,3,-87.624699,41.880093
2020,147590,National University of Health Sciences,Lombard,IL,60148,2,9,1,-88.013171,41.861697
2020,147642,Cosmetology Concepts Niles,Niles,IL,60714,3,2,1,-87.815113,42.027601
2020,147660,North Central College,Naperville,IL,60540,2,7,2,-88.14279,41.77576
2020,147679,North Park University,Chicago,IL,60625,2,9,2,-87.709948,41.975268
2020,147697,Northern Baptist Theological Seminary,Lisle,IL,60532,2,9,1,-88.056162,41.809104
2020,147703,Northern Illinois University,Dekalb,IL,60115,1,9,4,-88.766428,41.933869
2020,147767,Northwestern University,Evanston,IL,60208,2,9,5,-87.679858,42.050356
2020,147776,Northeastern Illinois University,Chicago,IL,60625,1,7,3,-87.718983,41.980399
2020,147800,Oakton Community College,Des Plaines,IL,60016,1,3,3,-87.880644,42.061893
2020,147819,Oehrlein School of Cosmetology,East Peoria,IL,61611,3,2,1,-89.55712,40.665832
2020,147828,Olivet Nazarene University,Bourbonnais,IL,60914,2,9,2,-87.875165,41.155237
2020,147916,Parkland College,Champaign,IL,61821,1,3,3,-88.290359,40.131963
2020,148007,Prairie State College,Chicago Heights,IL,60411,1,3,2,-87.638943,41.525316
2020,148016,Principia College,Elsah,IL,62028,2,5,1,-90.350285,38.948835
2020,148098,Professional's Choice Hair Design Academy,Joliet,IL,60435,3,2,1,-88.148846,41.523122
2020,148131,Quincy University,Quincy,IL,62301,2,7,2,-91.385975,39.938898
2020,148256,Rend Lake College,Ina,IL,62846,1,3,2,-88.918283,38.131481
2020,148292,Richland Community College,Decatur,IL,62521,1,3,2,-88.894125,39.883887
2020,148335,Robert Morris University Illinois,Chicago,IL,60605,2,7,-2,-87.627068,41.876278
2020,148380,Rock Valley College,Rockford,IL,61114,1,3,3,-88.993544,42.306174
2020,148405,Rockford University,Rockford,IL,61108,2,7,2,-89.019536,42.270639
2020,148487,Roosevelt University,Chicago,IL,60605,2,9,2,-87.624952,41.876055
2020,148496,Dominican University,River Forest,IL,60305,2,9,2,-87.823003,41.902678
2020,148511,Rush University,Chicago,IL,60612,2,9,2,-87.668581,41.874742
2020,148575,Saint Francis Medical Center College of Nursing,Peoria,IL,61603,2,9,1,-89.590322,40.701241
2020,148584,University of St Francis,Joliet,IL,60435,2,9,2,-88.096057,41.532225
2020,148593,St. John's College-Department of Nursing,Springfield,IL,62702,2,7,1,-89.64532,39.807602
2020,148627,Saint Xavier University,Chicago,IL,60655,2,8,2,-87.714749,41.707199
2020,148654,University of Illinois Springfield,Springfield,IL,62703,1,9,2,-89.616796,39.729524
2020,148672,Sauk Valley Community College,Dixon,IL,61021,1,3,2,-89.596483,41.817659
2020,148821,Shawnee Community College,Ullin,IL,62992,1,3,2,-89.03352,37.270198
2020,148876,Saint Augustine College,Chicago,IL,60640,2,5,1,-87.662806,41.972414
2020,148885,University of Saint Mary of the Lake,Mundelein,IL,60060,2,9,1,-88.000262,42.280702
2020,148937,Southeastern Illinois College,Harrisburg,IL,62946,1,3,2,-88.436631,37.75174
2020,148955,National Latino Education Institute,Chicago,IL,60609,2,2,1,-87.675917,41.822756
2020,148982,Spertus College,Chicago,IL,60605,2,9,1,-87.624785,41.873881
2020,148991,Spoon River College,Canton,IL,61520,1,3,2,-90.07233,40.527991
2020,149028,Saint Anthony College of Nursing,Rockford,IL,61114,2,9,1,-88.991968,42.310147
2020,149204,Educators of Beauty College of Cosmetology-Sterling,Sterling,IL,61081,3,2,1,-89.692522,41.788581
2020,149222,Southern Illinois University-Carbondale,Carbondale,IL,62901,1,9,4,-89.217273,37.714193
2020,149231,Southern Illinois University-Edwardsville,Edwardsville,IL,62026,1,9,4,-89.997779,38.793949
2020,149240,Southern Illinois University-System Office,Carbondale,IL,62901,1,9,-2,-89.232216,37.706473
2020,149310,Taylor Business Institute,Chicago,IL,60601,3,3,1,-87.62671,41.885452
2020,149329,Telshe Yeshiva-Chicago,Chicago,IL,60625,2,7,1,-87.71755,41.975536
2020,149365,South Suburban College,South Holland,IL,60473,1,3,2,-87.619123,41.606427
2020,149499,Tri-County Beauty Academy,LITCHFIELD,IL,62056,3,2,1,-89.655742,39.176137
2020,149505,Trinity Christian College,Palos Heights,IL,60463,2,8,2,-87.783973,41.667687
2020,149514,Trinity International University-Illinois,Deerfield,IL,60015,2,9,2,-87.880851,42.197945
2020,149532,Triton College,River Grove,IL,60171,1,3,3,-87.841056,41.916082
2020,149550,University of Spa & Cosmetology Arts,Springfield,IL,62704,3,2,1,-89.710839,39.76672
2020,149587,University of Illinois System Offices,Urbana,IL,61801,1,9,-2,-88.228381,40.108488
2020,149639,VanderCook College of Music,Chicago,IL,60616,2,7,1,-87.629138,41.836833
2020,149727,Waubonsee Community College,Sugar Grove,IL,60554,1,3,3,-88.459925,41.795955
2020,149763,Resurrection University,Chicago,IL,60622,2,9,1,-87.685291,41.90748
2020,149772,Western Illinois University,Macomb,IL,61455,1,9,3,-90.686899,40.468086
2020,149781,Wheaton College,Wheaton,IL,60187,2,9,2,-88.099643,41.870176
2020,149842,William Rainey Harper College,Palatine,IL,60067,1,3,4,-88.072811,42.081829
2020,150048,Ancilla College,Donaldson,IN,46513,2,3,1,-86.445263,41.337958
2020,150066,Anderson University,Anderson,IN,46012,2,9,2,-85.664315,40.112768
2020,150136,Ball State University,Muncie,IN,47306,1,9,5,-85.409043,40.203431
2020,150145,Bethel University,Mishawaka,IN,46545,2,7,2,-86.194686,41.678399
2020,150163,Butler University,Indianapolis,IN,46208,2,9,3,-86.172167,39.8374
2020,150172,Calumet College of Saint Joseph,Whiting,IN,46394,2,7,1,-87.494123,41.671008
2020,150215,Christian Theological Seminary,Indianapolis,IN,46208,2,9,1,-86.178551,39.832673
2020,150251,College of Court Reporting Inc,Valparaiso,IN,46385,3,3,1,-87.066331,41.467574
2020,150288,Concordia Theological Seminary,Fort Wayne,IN,46825,2,9,1,-85.10994,41.139321
2020,150303,Tricoci University of Beauty Culture-Highland,Highland,IN,46322,3,2,1,-87.467018,41.555885
2020,150400,DePauw University,Greencastle,IN,46135,2,5,2,-86.860363,39.640904
2020,150428,Don Roberts School of Hair Design,Schererville,IN,46375,3,2,1,-87.447089,41.485532
2020,150455,Earlham College,Richmond,IN,47374,2,7,1,-84.915037,39.823431
2020,150534,University of Evansville,Evansville,IN,47722,2,9,2,-87.531644,37.971549
2020,150604,Franklin College,Franklin,IN,46131,2,7,1,-86.047182,39.478298
2020,150668,Goshen College,Goshen,IN,46526,2,9,1,-85.827795,41.563582
2020,150677,Grace College and Theological Seminary,Winona Lake,IN,46590,2,9,2,-85.814228,41.22595
2020,150756,Hanover College,Hanover,IN,47243,2,5,2,-85.460051,38.715642
2020,150765,J Michael Harrold Beauty Academy,Terre Haute,IN,47807,3,2,1,-87.383391,39.470359
2020,150774,Holy Cross College,Notre Dame,IN,46556,2,5,1,-86.253822,41.698996
2020,150853,PJ's College of Cosmetology-Clarksville,Clarksville,IN,47129,3,2,1,-85.768914,38.3121
2020,150941,Huntington University,Huntington,IN,46750,2,9,2,-85.497317,40.898152
2020,150987,Ivy Tech Community College,Indianapolis,IN,46208,1,3,5,-86.158213,39.803753
2020,151102,Purdue University Fort Wayne,Fort Wayne,IN,46805,1,7,3,-85.108962,41.117278
2020,151111,Indiana University-Purdue University-Indianapolis,Indianapolis,IN,46202,1,9,5,-86.172217,39.772948
2020,151263,University of Indianapolis,Indianapolis,IN,46227,2,9,3,-86.133969,39.709571
2020,151290,Indiana Institute of Technology,Fort Wayne,IN,46803,2,9,2,-85.116479,41.078365
2020,151306,University of Southern Indiana,Evansville,IN,47712,1,9,4,-87.677214,37.962374
2020,151324,Indiana State University,Terre Haute,IN,47809,1,9,4,-87.407846,39.469073
2020,151333,Indiana University-Kokomo,Kokomo,IN,46902,1,7,2,-86.132048,40.460062
2020,151342,Indiana University-South Bend,South Bend,IN,46615,1,7,2,-86.221991,41.665324
2020,151351,Indiana University-Bloomington,Bloomington,IN,47405,1,9,5,-86.526559,39.16609
2020,151360,Indiana University-Northwest,Gary,IN,46408,1,7,2,-87.337249,41.557324
2020,151379,Indiana University-Southeast,New Albany,IN,47150,1,7,2,-85.819985,38.345191
2020,151388,Indiana University-East,Richmond,IN,47374,1,7,2,-84.881923,39.868707
2020,151458,International Business College-Fort Wayne,Fort Wayne,IN,46804,3,3,-2,-85.257786,41.035006
2020,151467,International Business College-Indianapolis,Indianapolis,IN,46256,3,3,1,-86.041648,39.885628
2020,151564,Taylor Institute of Cosmetology II,Knox,IN,46534,3,2,1,-86.618158,41.287712
2020,151607,Tricoci University of Beauty Culture-Lafayette,Lafayette,IN,47901,3,2,1,-86.887007,40.419818
2020,151652,Empire Beauty School-Indianapolis,Indianapolis,IN,46237,3,2,1,-86.100614,39.666467
2020,151661,Lincoln College of Technology-Indianapolis,Indianapolis,IN,46268,3,4,1,-86.246276,39.884503
2020,151777,Manchester University,North Manchester,IN,46962,2,9,2,-85.762643,41.010549
2020,151786,Marian University,Indianapolis,IN,46222,2,9,2,-86.202643,39.813233
2020,151801,Indiana Wesleyan University-Marion,Marion,IN,46953,2,8,2,-85.667503,40.517937
2020,151810,Martin University,Indianapolis,IN,46218,2,7,1,-86.103953,39.798144
2020,151865,Anabaptist Mennonite Biblical Seminary,Elkhart,IN,46517,2,7,1,-85.972165,41.656013
2020,151962,Mid-America College of Funeral Service,Jeffersonville,IN,47130,2,5,1,-85.744696,38.31209
2020,152044,West Michigan College of Barbering and Beauty,Kalamazoo,MI,49008,3,4,1,-85.590244,42.259329
2020,152080,University of Notre Dame,Notre Dame,IN,46556,2,9,4,-86.238959,41.703058
2020,152099,Oakland City University,Oakland City,IN,47660,2,9,2,-87.35144,38.340891
2020,152150,PJ's College of Cosmetology-Richmond,Richmond,IN,47374,3,2,1,-84.842601,39.83227
2020,152275,Ravenscroft Beauty College,Fort Wayne,IN,46835,3,2,1,-85.046078,41.121802
2020,152309,Rogers Academy of Hair Design,Evansville,IN,47708,3,2,1,-87.572366,37.970675
2020,152318,Rose-Hulman Institute of Technology,Terre Haute,IN,47803,2,7,2,-87.326749,39.483602
2020,152336,University of Saint Francis-Fort Wayne,Fort Wayne,IN,46808,2,9,2,-85.177246,41.087205
2020,152381,Saint Mary-of-the-Woods College,Saint Mary of the Woods,IN,47876,2,7,2,-87.463791,39.508546
2020,152390,Saint Mary's College,Notre Dame,IN,46556,2,9,2,-86.256947,41.707274
2020,152451,Saint Meinrad School of Theology,St. Meinrad,IN,47577,2,8,1,-86.810388,38.165546
2020,152497,Saint Elizabeth School of Nursing,Lafayette,IN,47904,2,4,1,-86.88083,40.427401
2020,152530,Taylor University,Upland,IN,46989,2,7,2,-85.497034,40.456246
2020,152567,Trine University,Angola,IN,46703,2,9,2,-85.008009,41.632502
2020,152600,Valparaiso University,Valparaiso,IN,46383,2,9,2,-87.040172,41.462239
2020,152628,Vincennes Beauty College,Vincennes,IN,47591,3,2,1,-87.53241,38.679739
2020,152637,Vincennes University,Vincennes,IN,47591,1,5,4,-87.519939,38.687766
2020,152673,Wabash College,Crawfordsville,IN,47933,2,5,1,-86.906,40.037588
2020,152798,Allen College,Waterloo,IA,50703,2,9,1,-92.340148,42.530084
2020,152992,Briar Cliff University,Sioux City,IA,51104,2,9,2,-96.428444,42.526443
2020,153001,Buena Vista University,Storm Lake,IA,50588,2,7,2,-95.208529,42.642255
2020,153074,Capri College-Dubuque,Dubuque,IA,52004,3,4,1,-90.665565,42.497357
2020,153083,Capri College-Cedar Rapids,Cedar Rapids,IA,52404,3,4,1,-91.710201,41.960734
2020,153108,Central College,Pella,IA,50219,2,5,2,-92.922199,41.401539
2020,153126,Clarke University,Dubuque,IA,52001,2,9,1,-90.690487,42.509475
2020,153144,Coe College,Cedar Rapids,IA,52402,2,5,2,-91.658192,41.988263
2020,153162,Cornell College,Mount Vernon,IA,52314,2,7,2,-91.423741,41.924554
2020,153214,Des Moines Area Community College,Ankeny,IA,50023,1,3,5,-93.611597,41.707348
2020,153241,Divine Word College,Epworth,IA,52045,2,5,1,-90.934578,42.441721
2020,153250,Dordt University,Sioux Center,IA,51250,2,7,2,-96.166562,43.082527
2020,153269,Drake University,Des Moines,IA,50311,2,9,2,-93.652163,41.60129
2020,153278,University of Dubuque,Dubuque,IA,52001,2,9,2,-90.693428,42.49726
2020,153296,Ellsworth Community College,Iowa Falls,IA,50126,1,3,1,-93.265853,42.527524
2020,153302,Emmaus Bible College,Dubuque,IA,52001,2,5,1,-90.706011,42.508307
2020,153311,Eastern Iowa Community College District,Davenport,IA,52801,1,3,3,-90.574459,41.522179
2020,153320,Faith Baptist Bible College and Theological Seminary,Ankeny,IA,50023,2,9,1,-93.624422,41.737082
2020,153339,Faust Institute of Cosmetology-Storm Lake,Storm Lake,IA,50588,3,4,1,-95.201412,42.654449
2020,153366,Graceland University-Lamoni,Lamoni,IA,50140,2,9,2,-93.924893,40.615966
2020,153375,Grand View University,Des Moines,IA,50316,2,7,2,-93.604352,41.620813
2020,153384,Grinnell College,Grinnell,IA,50112,2,5,2,-92.722094,41.747952
2020,153427,Hamilton Technical College,Davenport,IA,52807,3,5,1,-90.560088,41.573888
2020,153445,Hawkeye Community College,Waterloo,IA,50701,1,3,3,-92.330633,42.430003
2020,153463,American Hair Academy,Mt. Pleasant,IA,52641,3,4,1,-91.524949,40.962643
2020,153472,Indian Hills Community College,Ottumwa,IA,52501,1,3,2,-92.394736,41.045105
2020,153524,Iowa Central Community College,Fort Dodge,IA,50501,1,3,2,-94.20299,42.490067
2020,153533,Iowa Lakes Community College,Estherville,IA,51334,1,3,2,-94.835661,43.401376
2020,153542,UnityPoint Health-Des Moines School of Radiologic Technology,Des Moines,IA,50309,2,4,1,-93.635129,41.590094
2020,153588,American College of Hairstyling-Des Moines,Des Moines,IA,50309,3,4,-1,-93.610159,41.592324
